{"version":1,"language":"es","source":{"name":"Natural Earth","version":"5.1.2","url":"https://github.com/nvkelso/natural-earth-vector/tree/v5.1.2"},"labels":[{"id":"marine:1159115037","kind":"marine","name":"océano Antártico","latitude":-65.420441,"longitude":-18.409938,"minZoom":1,"maxZoom":6.5,"rank":0},{"id":"marine:1159115017","kind":"marine","name":"océano Ártico","latitude":52.639661,"longitude":1.213943,"minZoom":1,"maxZoom":6.5,"rank":0},{"id":"marine:1159115057","kind":"marine","name":"océano Atlántico","latitude":31.643338,"longitude":-37.333265,"minZoom":1,"maxZoom":6.5,"rank":0},{"id":"marine:1159115149","kind":"marine","name":"océano Atlántico","latitude":-34.017328,"longitude":-18.937481,"minZoom":1,"maxZoom":6.5,"rank":0},{"id":"marine:1159115123","kind":"marine","name":"océano Índico","latitude":-33.850746,"longitude":82.314428,"minZoom":1,"maxZoom":6.5,"rank":0},{"id":"marine:1159115079","kind":"marine","name":"océano Pacífico","latitude":23.751177,"longitude":-141.496705,"minZoom":1,"maxZoom":6.5,"rank":0},{"id":"marine:1159115099","kind":"marine","name":"océano Pacífico","latitude":-30.524666,"longitude":-126.825347,"minZoom":1,"maxZoom":6.5,"rank":0},{"id":"city:1159151611","kind":"city","name":"Bombay","latitude":19.018936,"longitude":72.855043,"minZoom":1.7,"maxZoom":20,"rank":1,"population":18978000},{"id":"city:1159151575","kind":"city","name":"Nueva York","latitude":40.751925,"longitude":-73.981963,"minZoom":1.7,"maxZoom":20,"rank":1,"population":19040000},{"id":"city:1159151595","kind":"city","name":"Pekín","latitude":39.930838,"longitude":116.38634,"minZoom":1.7,"maxZoom":20,"rank":1,"population":11106000},{"id":"city:1159151619","kind":"city","name":"Río de Janeiro","latitude":-22.923077,"longitude":-43.226967,"minZoom":1.7,"maxZoom":20,"rank":1,"population":11748000},{"id":"city:1159151585","kind":"city","name":"Moscú","latitude":55.75411,"longitude":37.613577,"minZoom":1.7,"maxZoom":20,"rank":2,"population":10452000},{"id":"city:1159151609","kind":"city","name":"Tokio","latitude":35.686963,"longitude":139.749462,"minZoom":1.7,"maxZoom":20,"rank":2,"population":35676000},{"id":"country:1159320539","kind":"country","name":"Alemania","latitude":50.961733,"longitude":9.678348,"minZoom":1.7,"maxZoom":6.7,"rank":2},{"id":"country:1159321225","kind":"country","name":"Arabia Saudita","latitude":23.806908,"longitude":44.6996,"minZoom":1.7,"maxZoom":7,"rank":2},{"id":"country:1159320355","kind":"country","name":"Australia","latitude":-24.129522,"longitude":134.04972,"minZoom":1.7,"maxZoom":5.7,"rank":2},{"id":"country:1159320441","kind":"country","name":"Brasil","latitude":-12.098687,"longitude":-49.55945,"minZoom":1.7,"maxZoom":5.7,"rank":2},{"id":"country:1159320467","kind":"country","name":"Canadá","latitude":60.324287,"longitude":-101.9107,"minZoom":1.7,"maxZoom":5.7,"rank":2},{"id":"country:1159320493","kind":"country","name":"Chile","latitude":-38.151771,"longitude":-72.318871,"minZoom":1.7,"maxZoom":6.7,"rank":2},{"id":"country:1159320471","kind":"country","name":"China","latitude":32.498178,"longitude":106.337289,"minZoom":1.7,"maxZoom":5.7,"rank":2},{"id":"country:1159320575","kind":"country","name":"Egipto","latitude":26.186173,"longitude":29.445837,"minZoom":1.7,"maxZoom":6.7,"rank":2},{"id":"country:1159321369","kind":"country","name":"Estados Unidos","latitude":39.538479,"longitude":-97.482602,"minZoom":1.7,"maxZoom":5.7,"rank":2},{"id":"country:1159320637","kind":"country","name":"Francia","latitude":46.696113,"longitude":2.552275,"minZoom":1.7,"maxZoom":6.7,"rank":2},{"id":"country:1159320847","kind":"country","name":"India","latitude":22.686852,"longitude":79.358105,"minZoom":1.7,"maxZoom":6.7,"rank":2},{"id":"country:1159320845","kind":"country","name":"Indonesia","latitude":-0.954404,"longitude":101.892949,"minZoom":1.7,"maxZoom":6.7,"rank":2},{"id":"country:1159320937","kind":"country","name":"Japón","latitude":36.142538,"longitude":138.44217,"minZoom":1.7,"maxZoom":7,"rank":2},{"id":"country:1159320971","kind":"country","name":"Kenia","latitude":0.549043,"longitude":37.907632,"minZoom":1.7,"maxZoom":6.7,"rank":2},{"id":"country:1159321089","kind":"country","name":"Nigeria","latitude":9.439799,"longitude":7.50322,"minZoom":1.7,"maxZoom":6.7,"rank":2},{"id":"country:1159320713","kind":"country","name":"Reino Unido","latitude":54.402739,"longitude":-2.116346,"minZoom":1.7,"maxZoom":6.7,"rank":2},{"id":"country:1159321201","kind":"country","name":"Rusia","latitude":58.249357,"longitude":44.686469,"minZoom":1.7,"maxZoom":5.2,"rank":2},{"id":"country:1159321431","kind":"country","name":"Sudáfrica","latitude":-29.708776,"longitude":23.665734,"minZoom":1.7,"maxZoom":6.7,"rank":2},{"id":"city:1159151583","kind":"city","name":"Ciudad del Cabo","latitude":-33.918065,"longitude":18.433042,"minZoom":1.7,"maxZoom":20,"rank":3,"population":3215000},{"id":"city:1159151603","kind":"city","name":"El Cairo","latitude":30.051906,"longitude":31.248022,"minZoom":1.7,"maxZoom":20,"rank":3,"population":11893000},{"id":"city:1159151613","kind":"city","name":"París","latitude":48.868639,"longitude":2.33139,"minZoom":1.7,"maxZoom":20,"rank":3,"population":9904000},{"id":"city:1159151623","kind":"city","name":"Sídney","latitude":-33.918065,"longitude":151.183234,"minZoom":1.7,"maxZoom":20,"rank":3,"population":4630000},{"id":"country:1159320551","kind":"country","name":"Groenlandia","latitude":74.319387,"longitude":-39.335251,"minZoom":1.7,"maxZoom":6.7,"rank":3},{"id":"city:1159151577","kind":"city","name":"Londres","latitude":51.501941,"longitude":-0.118668,"minZoom":1.7,"maxZoom":20,"rank":5,"population":8567000},{"id":"admin1:1159315233","kind":"admin1","name":"Alabama","latitude":32.8551,"longitude":-86.7184,"minZoom":2,"maxZoom":20,"rank":0},{"id":"admin1:1159308731","kind":"admin1","name":"Alaska","latitude":65.3609,"longitude":-151.604,"minZoom":2,"maxZoom":20,"rank":0},{"id":"admin1:1159315341","kind":"admin1","name":"Arizona","latitude":34.3046,"longitude":-111.935,"minZoom":2,"maxZoom":20,"rank":0},{"id":"admin1:1159315355","kind":"admin1","name":"Arkansas","latitude":34.7563,"longitude":-92.1428,"minZoom":2,"maxZoom":20,"rank":0},{"id":"admin1:1159308415","kind":"admin1","name":"California","latitude":36.7496,"longitude":-119.591,"minZoom":2,"maxZoom":20,"rank":0},{"id":"admin1:1159314887","kind":"admin1","name":"Carolina del Norte","latitude":35.6152,"longitude":-78.866,"minZoom":2,"maxZoom":20,"rank":0},{"id":"admin1:1159315307","kind":"admin1","name":"Carolina del Sur","latitude":33.8578,"longitude":-80.6471,"minZoom":2,"maxZoom":20,"rank":0},{"id":"admin1:1159315343","kind":"admin1","name":"Colorado","latitude":38.9998,"longitude":-105.543,"minZoom":2,"maxZoom":20,"rank":0},{"id":"admin1:1159315301","kind":"admin1","name":"Connecticut","latitude":41.6486,"longitude":-72.7594,"minZoom":2,"maxZoom":20,"rank":0},{"id":"admin1:1159315337","kind":"admin1","name":"Dakota del Norte","latitude":47.4675,"longitude":-100.302,"minZoom":2,"maxZoom":20,"rank":0},{"id":"admin1:1159315367","kind":"admin1","name":"Dakota del Sur","latitude":44.4711,"longitude":-100.255,"minZoom":2,"maxZoom":20,"rank":0},{"id":"admin1:1159315325","kind":"admin1","name":"Delaware","latitude":38.8657,"longitude":-75.4112,"minZoom":2,"maxZoom":20,"rank":0},{"id":"admin1:1159315207","kind":"admin1","name":"Florida","latitude":28.1568,"longitude":-81.6228,"minZoom":2,"maxZoom":20,"rank":0},{"id":"admin1:1159311857","kind":"admin1","name":"Georgia","latitude":32.8547,"longitude":-83.4078,"minZoom":2,"maxZoom":20,"rank":0},{"id":"admin1:1159308409","kind":"admin1","name":"Hawái","latitude":21.4919,"longitude":-157.999,"minZoom":2,"maxZoom":20,"rank":0},{"id":"admin1:1159315339","kind":"admin1","name":"Idaho","latitude":43.7825,"longitude":-114.133,"minZoom":2,"maxZoom":20,"rank":0},{"id":"admin1:1159315309","kind":"admin1","name":"Illinois","latitude":39.946,"longitude":-89.1991,"minZoom":2,"maxZoom":20,"rank":0},{"id":"admin1:1159315311","kind":"admin1","name":"Indiana","latitude":39.8874,"longitude":-86.1396,"minZoom":2,"maxZoom":20,"rank":0},{"id":"admin1:1159315357","kind":"admin1","name":"Iowa","latitude":42.0423,"longitude":-93.3891,"minZoom":2,"maxZoom":20,"rank":0},{"id":"admin1:1159315359","kind":"admin1","name":"Kansas","latitude":38.5,"longitude":-98.3309,"minZoom":2,"maxZoom":20,"rank":0},{"id":"admin1:1159315313","kind":"admin1","name":"Kentucky","latitude":37.3994,"longitude":-85.5729,"minZoom":2,"maxZoom":20,"rank":0},{"id":"admin1:1159315221","kind":"admin1","name":"Luisiana","latitude":30.5274,"longitude":-91.9991,"minZoom":2,"maxZoom":20,"rank":0},{"id":"admin1:1159308501","kind":"admin1","name":"Maine","latitude":45.148,"longitude":-69.1973,"minZoom":2,"maxZoom":20,"rank":0},{"id":"admin1:1159315329","kind":"admin1","name":"Maryland","latitude":39.3874,"longitude":-77.0454,"minZoom":2,"maxZoom":20,"rank":0},{"id":"admin1:1159312157","kind":"admin1","name":"Massachusetts","latitude":42.3739,"longitude":-71.9993,"minZoom":2,"maxZoom":20,"rank":0},{"id":"admin1:1159314665","kind":"admin1","name":"Míchigan","latitude":43.4343,"longitude":-84.9479,"minZoom":2,"maxZoom":20,"rank":0},{"id":"admin1:1159315297","kind":"admin1","name":"Minnesota","latitude":46.0592,"longitude":-93.364,"minZoom":2,"maxZoom":20,"rank":0},{"id":"admin1:1159315231","kind":"admin1","name":"Misisipi","latitude":32.8657,"longitude":-89.7189,"minZoom":2,"maxZoom":20,"rank":0},{"id":"admin1:1159315361","kind":"admin1","name":"Misuri","latitude":38.5487,"longitude":-92.446,"minZoom":2,"maxZoom":20,"rank":0},{"id":"admin1:1159315333","kind":"admin1","name":"Montana","latitude":46.9965,"longitude":-110.044,"minZoom":2,"maxZoom":20,"rank":0},{"id":"admin1:1159315363","kind":"admin1","name":"Nebraska","latitude":41.5002,"longitude":-99.6855,"minZoom":2,"maxZoom":20,"rank":0},{"id":"admin1:1159315345","kind":"admin1","name":"Nevada","latitude":39.4299,"longitude":-117.02,"minZoom":2,"maxZoom":20,"rank":0},{"id":"admin1:1159315267","kind":"admin1","name":"Nueva Jersey","latitude":40.0449,"longitude":-74.4653,"minZoom":2,"maxZoom":20,"rank":0},{"id":"admin1:1159312155","kind":"admin1","name":"Nueva York","latitude":43.1988,"longitude":-75.3242,"minZoom":2,"maxZoom":20,"rank":0},{"id":"admin1:1159315303","kind":"admin1","name":"Nuevo Hampshire","latitude":43.5993,"longitude":-71.6301,"minZoom":2,"maxZoom":20,"rank":0},{"id":"admin1:1159315347","kind":"admin1","name":"Nuevo México","latitude":34.5002,"longitude":-106.024,"minZoom":2,"maxZoom":20,"rank":0},{"id":"admin1:1159315315","kind":"admin1","name":"Ohio","latitude":40.0924,"longitude":-82.6719,"minZoom":2,"maxZoom":20,"rank":0},{"id":"admin1:1159315365","kind":"admin1","name":"Oklahoma","latitude":35.452,"longitude":-97.1309,"minZoom":2,"maxZoom":20,"rank":0},{"id":"admin1:1159309549","kind":"admin1","name":"Oregón","latitude":43.8333,"longitude":-120.386,"minZoom":2,"maxZoom":20,"rank":0},{"id":"admin1:1159315331","kind":"admin1","name":"Pensilvania","latitude":40.8601,"longitude":-77.6094,"minZoom":2,"maxZoom":20,"rank":0},{"id":"admin1:1159312213","kind":"admin1","name":"Rhode Island","latitude":41.6242,"longitude":-71.5082,"minZoom":2,"maxZoom":20,"rank":0},{"id":"admin1:1159315319","kind":"admin1","name":"Tennessee","latitude":35.7514,"longitude":-86.3415,"minZoom":2,"maxZoom":20,"rank":0},{"id":"admin1:1159315211","kind":"admin1","name":"Texas","latitude":31.131,"longitude":-98.7607,"minZoom":2,"maxZoom":20,"rank":0},{"id":"admin1:1159315349","kind":"admin1","name":"Utah","latitude":39.5007,"longitude":-111.544,"minZoom":2,"maxZoom":20,"rank":0},{"id":"admin1:1159315305","kind":"admin1","name":"Vermont","latitude":44.0886,"longitude":-72.7317,"minZoom":2,"maxZoom":20,"rank":0},{"id":"admin1:1159315259","kind":"admin1","name":"Virginia","latitude":37.7403,"longitude":-78.2431,"minZoom":2,"maxZoom":20,"rank":0},{"id":"admin1:1159315323","kind":"admin1","name":"Virginia Occidental","latitude":38.6422,"longitude":-80.7128,"minZoom":2,"maxZoom":20,"rank":0},{"id":"admin1:1159309547","kind":"admin1","name":"Washington","latitude":47.4865,"longitude":-120.361,"minZoom":2,"maxZoom":20,"rank":0},{"id":"admin1:1159315321","kind":"admin1","name":"Wisconsin","latitude":44.3709,"longitude":-89.5831,"minZoom":2,"maxZoom":20,"rank":0},{"id":"admin1:1159315351","kind":"admin1","name":"Wyoming","latitude":42.9999,"longitude":-107.552,"minZoom":2,"maxZoom":20,"rank":0},{"id":"city:1159151569","kind":"city","name":"Los Ángeles","latitude":33.991924,"longitude":-118.181926,"minZoom":2,"maxZoom":20,"rank":1,"population":12500000},{"id":"city:1159151605","kind":"city","name":"Shanghái","latitude":31.218398,"longitude":121.434559,"minZoom":2,"maxZoom":20,"rank":1,"population":14987000},{"id":"marine:1159115483","kind":"marine","name":"bahía de Baffin","latitude":73.577538,"longitude":-67.587609,"minZoom":2,"maxZoom":7.5,"rank":1},{"id":"marine:1159115253","kind":"marine","name":"Bahía de Bengala","latitude":13.574193,"longitude":87.520735,"minZoom":2,"maxZoom":7.5,"rank":1},{"id":"marine:1159115441","kind":"marine","name":"Bahía de Hudson","latitude":59.643341,"longitude":-85.152445,"minZoom":2,"maxZoom":7.5,"rank":1},{"id":"marine:1159115503","kind":"marine","name":"Golfo de Alaska","latitude":57.616088,"longitude":-149.409403,"minZoom":2,"maxZoom":7.5,"rank":1},{"id":"marine:1159115399","kind":"marine","name":"Golfo de México","latitude":25.493995,"longitude":-89.917151,"minZoom":2,"maxZoom":7.5,"rank":1},{"id":"marine:1159115597","kind":"marine","name":"golfo Pérsico","latitude":26.820268,"longitude":52.004239,"minZoom":2,"maxZoom":7.5,"rank":1},{"id":"marine:1159115343","kind":"marine","name":"mar Arábigo","latitude":13.330434,"longitude":63.859089,"minZoom":2,"maxZoom":7.5,"rank":1},{"id":"marine:1159115379","kind":"marine","name":"mar Caribe","latitude":15.334204,"longitude":-74.386393,"minZoom":2,"maxZoom":7.5,"rank":1},{"id":"marine:1159115461","kind":"marine","name":"mar Caspio","latitude":41.789622,"longitude":50.667937,"minZoom":2,"maxZoom":7.5,"rank":1},{"id":"marine:1159115359","kind":"marine","name":"mar de Beaufort","latitude":72.230373,"longitude":-136.635254,"minZoom":2,"maxZoom":7.5,"rank":1},{"id":"marine:1159115273","kind":"marine","name":"mar de China Meridional","latitude":11.232162,"longitude":112.370761,"minZoom":2,"maxZoom":7.5,"rank":1},{"id":"marine:1159115197","kind":"marine","name":"mar de Filipinas","latitude":18.719314,"longitude":133.67241,"minZoom":2,"maxZoom":7.5,"rank":1},{"id":"marine:1159115419","kind":"marine","name":"mar de Labrador","latitude":56.090094,"longitude":-53.620043,"minZoom":2,"maxZoom":7.5,"rank":1},{"id":"marine:1159115541","kind":"marine","name":"mar de Ojotsk","latitude":52.743312,"longitude":148.231179,"minZoom":2,"maxZoom":7.5,"rank":1},{"id":"marine:1159115615","kind":"marine","name":"mar de Ross","latitude":-76.718968,"longitude":-157.515288,"minZoom":2,"maxZoom":7.5,"rank":1},{"id":"marine:1159115233","kind":"marine","name":"mar de Tasmania","latitude":-39.640956,"longitude":160.675978,"minZoom":2,"maxZoom":7.5,"rank":1},{"id":"marine:1159115579","kind":"marine","name":"mar de Weddell","latitude":-76.394685,"longitude":-46.873337,"minZoom":2,"maxZoom":7.5,"rank":1},{"id":"marine:1159115219","kind":"marine","name":"mar del Coral","latitude":-18.29209,"longitude":156.929539,"minZoom":2,"maxZoom":7.5,"rank":1},{"id":"marine:1159115305","kind":"marine","name":"mar del Japón","latitude":41.277394,"longitude":135.736771,"minZoom":2,"maxZoom":7.5,"rank":1},{"id":"marine:1159115171","kind":"marine","name":"mar Negro","latitude":43.251841,"longitude":34.158929,"minZoom":2,"maxZoom":7.5,"rank":1},{"id":"marine:1159115521","kind":"marine","name":"mar Rojo","latitude":20.290262,"longitude":38.751909,"minZoom":2,"maxZoom":7.5,"rank":1},{"id":"marine:1159115321","kind":"marine","name":"Mediterráneo","latitude":35.758256,"longitude":17.970092,"minZoom":2,"maxZoom":7.5,"rank":1},{"id":"admin1:1159308775","kind":"admin1","name":"Alberta","latitude":55.2816,"longitude":-115,"minZoom":2,"maxZoom":20,"rank":2},{"id":"admin1:1159313267","kind":"admin1","name":"Australia Meridional","latitude":-29.6504,"longitude":135.783,"minZoom":2,"maxZoom":20,"rank":2},{"id":"admin1:1159315805","kind":"admin1","name":"Australia Occidental","latitude":-25.8483,"longitude":121.646,"minZoom":2,"maxZoom":20,"rank":2},{"id":"admin1:1159307717","kind":"admin1","name":"Columbia Británica","latitude":54.6943,"longitude":-124.662,"minZoom":2,"maxZoom":20,"rank":2},{"id":"admin1:1159310911","kind":"admin1","name":"Isla del Príncipe Eduardo","latitude":46.3417,"longitude":-63.3862,"minZoom":2,"maxZoom":20,"rank":2},{"id":"admin1:1159308777","kind":"admin1","name":"Manitoba","latitude":54.85,"longitude":-97.3828,"minZoom":2,"maxZoom":20,"rank":2},{"id":"admin1:1159309585","kind":"admin1","name":"Nueva Escocia","latitude":45.2293,"longitude":-62.8113,"minZoom":2,"maxZoom":20,"rank":2},{"id":"admin1:1159313299","kind":"admin1","name":"Nueva Gales del Sur","latitude":-32.4751,"longitude":146.781,"minZoom":2,"maxZoom":20,"rank":2},{"id":"admin1:1159308785","kind":"admin1","name":"Nuevo Brunswick","latitude":46.5822,"longitude":-66.4558,"minZoom":2,"maxZoom":20,"rank":2},{"id":"admin1:1159307715","kind":"admin1","name":"Nunavut","latitude":64.3853,"longitude":-97.1443,"minZoom":2,"maxZoom":20,"rank":2},{"id":"admin1:1159309687","kind":"admin1","name":"Ontario","latitude":50.5244,"longitude":-84.7943,"minZoom":2,"maxZoom":20,"rank":2},{"id":"admin1:1159308703","kind":"admin1","name":"Quebec","latitude":52.2593,"longitude":-73.7168,"minZoom":2,"maxZoom":20,"rank":2},{"id":"admin1:1159315807","kind":"admin1","name":"Queensland","latitude":-23.1364,"longitude":144.778,"minZoom":2,"maxZoom":20,"rank":2},{"id":"admin1:1159308773","kind":"admin1","name":"Saskatchewan","latitude":54.4965,"longitude":-105.682,"minZoom":2,"maxZoom":20,"rank":2},{"id":"admin1:1159313261","kind":"admin1","name":"Tasmania","latitude":-42.1383,"longitude":146.603,"minZoom":2,"maxZoom":20,"rank":2},{"id":"admin1:1159308713","kind":"admin1","name":"Terranova y Labrador","latitude":48.6598,"longitude":-56.2169,"minZoom":2,"maxZoom":20,"rank":2},{"id":"admin1:1159311169","kind":"admin1","name":"Territorio de Jervis Bay","latitude":-35.1532,"longitude":150.692,"minZoom":2,"maxZoom":20,"rank":2},{"id":"admin1:1159315809","kind":"admin1","name":"Territorio del Norte","latitude":-20.1026,"longitude":133.78,"minZoom":2,"maxZoom":20,"rank":2},{"id":"admin1:1159308771","kind":"admin1","name":"Territorios del Noroeste","latitude":64.0831,"longitude":-119.942,"minZoom":2,"maxZoom":20,"rank":2},{"id":"admin1:1159313263","kind":"admin1","name":"Victoria","latitude":-37.0082,"longitude":144.75,"minZoom":2,"maxZoom":20,"rank":2},{"id":"admin1:1159309667","kind":"admin1","name":"Yukón","latitude":63.6088,"longitude":-135.7,"minZoom":2,"maxZoom":20,"rank":2},{"id":"city:1159151591","kind":"city","name":"Lagos","latitude":6.445208,"longitude":3.389585,"minZoom":2,"maxZoom":20,"rank":2,"population":9466000},{"id":"country:1159320331","kind":"country","name":"Argentina","latitude":-33.501159,"longitude":-64.173331,"minZoom":2,"maxZoom":7,"rank":2},{"id":"country:1159320587","kind":"country","name":"España","latitude":40.090953,"longitude":-3.464718,"minZoom":2,"maxZoom":7,"rank":2},{"id":"country:1159320617","kind":"country","name":"Etiopía","latitude":8.032795,"longitude":39.0886,"minZoom":2,"maxZoom":7,"rank":2},{"id":"country:1159320919","kind":"country","name":"Italia","latitude":44.732482,"longitude":11.076907,"minZoom":2,"maxZoom":7,"rank":2},{"id":"country:1159321055","kind":"country","name":"México","latitude":23.919988,"longitude":-102.289448,"minZoom":2,"maxZoom":6.7,"rank":2},{"id":"country:1159321135","kind":"country","name":"Nueva Zelanda","latitude":-39.759,"longitude":172.787,"minZoom":2,"maxZoom":6.7,"rank":2},{"id":"country:1159321163","kind":"country","name":"Perú","latitude":-12.976679,"longitude":-72.90016,"minZoom":2,"maxZoom":7,"rank":2},{"id":"country:1159320513","kind":"country","name":"República Democrática del Congo","latitude":-1.858167,"longitude":23.458829,"minZoom":2,"maxZoom":7,"rank":2},{"id":"country:1159321331","kind":"country","name":"Turquía","latitude":39.345388,"longitude":34.508268,"minZoom":2,"maxZoom":7,"rank":2},{"id":"country:1159321417","kind":"country","name":"Vietnam","latitude":21.715416,"longitude":105.387292,"minZoom":2,"maxZoom":7,"rank":2},{"id":"admin1:1159313269","kind":"admin1","name":"Isla de Lord Howe","latitude":-31.586,"longitude":159.076,"minZoom":2,"maxZoom":20,"rank":3},{"id":"city:1159151615","kind":"city","name":"Santiago de Chile","latitude":-33.448068,"longitude":-70.668987,"minZoom":2,"maxZoom":20,"rank":3,"population":5720000},{"id":"country:1159320917","kind":"country","name":"Islandia","latitude":64.779286,"longitude":-18.673711,"minZoom":2,"maxZoom":7,"rank":3},{"id":"country:1159321287","kind":"country","name":"Suecia","latitude":65.85918,"longitude":19.01705,"minZoom":2,"maxZoom":7,"rank":3},{"id":"city:1159151597","kind":"city","name":"Nairobi","latitude":-1.281401,"longitude":36.814711,"minZoom":2,"maxZoom":20,"rank":5,"population":3010000},{"id":"admin1:1159313297","kind":"admin1","name":"Territorio de la Capital Australiana","latitude":-35.4618,"longitude":148.983,"minZoom":2,"maxZoom":20,"rank":9},{"id":"admin1:1159315327","kind":"admin1","name":"Washington D. C.","latitude":38.8922,"longitude":-77.0113,"minZoom":2,"maxZoom":20,"rank":9},{"id":"admin1:1159315603","kind":"admin1","name":"Isla Macquarie","latitude":-54.5929,"longitude":158.898,"minZoom":2,"maxZoom":20,"rank":20},{"id":"city:1159151627","kind":"city","name":"Singapur","latitude":1.294979,"longitude":103.853875,"minZoom":2.1,"maxZoom":20,"rank":0,"population":5183700},{"id":"city:1159151487","kind":"city","name":"Miami","latitude":25.789557,"longitude":-80.226052,"minZoom":2.1,"maxZoom":20,"rank":1,"population":5585000},{"id":"city:1159151541","kind":"city","name":"Nueva Delhi","latitude":28.600023,"longitude":77.19998,"minZoom":2.1,"maxZoom":20,"rank":1,"population":317797},{"id":"city:1159151573","kind":"city","name":"Washington D. C.","latitude":38.901495,"longitude":-77.011364,"minZoom":2.1,"maxZoom":20,"rank":1,"population":4338000},{"id":"city:1159151599","kind":"city","name":"Yakarta","latitude":-6.172472,"longitude":106.827492,"minZoom":2.1,"maxZoom":20,"rank":1,"population":9125000},{"id":"city:1159151587","kind":"city","name":"Ciudad de México","latitude":19.444388,"longitude":-99.132934,"minZoom":2.1,"maxZoom":20,"rank":2,"population":19028000},{"id":"city:1159151557","kind":"city","name":"Toronto","latitude":43.701926,"longitude":-79.421967,"minZoom":2.1,"maxZoom":20,"rank":2,"population":5213000},{"id":"city:1159151555","kind":"city","name":"Vancouver","latitude":49.275362,"longitude":-123.12359,"minZoom":2.1,"maxZoom":20,"rank":2,"population":2313328},{"id":"city:1159151559","kind":"city","name":"Buenos Aires","latitude":-34.600556,"longitude":-58.399477,"minZoom":2.1,"maxZoom":20,"rank":3,"population":12795000},{"id":"city:1159151601","kind":"city","name":"Bogotá","latitude":4.598369,"longitude":-74.08529,"minZoom":2.1,"maxZoom":20,"rank":5,"population":7772000},{"id":"country:1159320985","kind":"country","name":"Corea del Sur","latitude":36.384924,"longitude":128.129504,"minZoom":2.5,"maxZoom":7,"rank":2},{"id":"country:1159321169","kind":"country","name":"Filipinas","latitude":11.198,"longitude":122.465,"minZoom":2.5,"maxZoom":7,"rank":2},{"id":"country:1159320881","kind":"country","name":"Irán","latitude":32.166225,"longitude":54.931495,"minZoom":2.5,"maxZoom":6.7,"rank":2},{"id":"country:1159321173","kind":"country","name":"Papúa Nueva Guinea","latitude":-5.695285,"longitude":143.910216,"minZoom":2.5,"maxZoom":7.5,"rank":2},{"id":"country:1159320565","kind":"country","name":"Argelia","latitude":27.397406,"longitude":2.808241,"minZoom":2.5,"maxZoom":7,"rank":3},{"id":"country:1159320507","kind":"country","name":"Costa de Marfil","latitude":7.49139,"longitude":-5.568618,"minZoom":2.5,"maxZoom":8,"rank":3},{"id":"country:1159321179","kind":"country","name":"Polonia","latitude":51.990316,"longitude":19.490468,"minZoom":2.5,"maxZoom":7,"rank":3},{"id":"country:1159321229","kind":"country","name":"Sudán","latitude":16.330746,"longitude":29.260657,"minZoom":2.5,"maxZoom":8,"rank":3},{"id":"country:1159321411","kind":"country","name":"Venezuela","latitude":7.182476,"longitude":-64.599381,"minZoom":2.5,"maxZoom":7.5,"rank":3},{"id":"country:1159321441","kind":"country","name":"Zimbabue","latitude":-18.91164,"longitude":29.925444,"minZoom":2.5,"maxZoom":8,"rank":3},{"id":"country:1159320525","kind":"country","name":"Costa Rica","latitude":10.0651,"longitude":-84.077922,"minZoom":2.5,"maxZoom":8,"rank":5},{"id":"city:1159151479","kind":"city","name":"San Francisco","latitude":37.769196,"longitude":-122.417169,"minZoom":2.7,"maxZoom":20,"rank":1,"population":3450000},{"id":"country:1159321153","kind":"country","name":"Pakistán","latitude":29.328389,"longitude":68.545632,"minZoom":2.7,"maxZoom":7,"rank":2},{"id":"city:1159151529","kind":"city","name":"Berlín","latitude":52.523765,"longitude":13.399603,"minZoom":2.7,"maxZoom":20,"rank":3,"population":3406000},{"id":"city:1159151593","kind":"city","name":"Roma","latitude":41.897902,"longitude":12.481313,"minZoom":2.7,"maxZoom":20,"rank":3,"population":3339000},{"id":"country:1159320527","kind":"country","name":"Cuba","latitude":21.334024,"longitude":-77.975855,"minZoom":2.7,"maxZoom":8,"rank":3},{"id":"country:1159320793","kind":"country","name":"Ghana","latitude":7.717639,"longitude":-1.036941,"minZoom":2.7,"maxZoom":8,"rank":3},{"id":"country:1159320811","kind":"country","name":"Grecia","latitude":39.492763,"longitude":21.72568,"minZoom":2.7,"maxZoom":8,"rank":3},{"id":"country:1159320967","kind":"country","name":"Kazajistán","latitude":49.054149,"longitude":68.685548,"minZoom":2.7,"maxZoom":7,"rank":3},{"id":"country:1159321051","kind":"country","name":"Madagascar","latitude":-18.628288,"longitude":46.704241,"minZoom":2.7,"maxZoom":7,"rank":3},{"id":"country:1159321035","kind":"country","name":"Marruecos","latitude":31.650723,"longitude":-7.187296,"minZoom":2.7,"maxZoom":8,"rank":3},{"id":"country:1159321243","kind":"country","name":"Senegal","latitude":15.138125,"longitude":-14.778586,"minZoom":2.7,"maxZoom":8,"rank":3},{"id":"country:1159321305","kind":"country","name":"Tailandia","latitude":15.45974,"longitude":101.073198,"minZoom":2.7,"maxZoom":8,"rank":3},{"id":"country:1159321345","kind":"country","name":"Ucrania","latitude":49.724739,"longitude":32.140865,"minZoom":2.7,"maxZoom":7,"rank":3},{"id":"city:1159151525","kind":"city","name":"Manila","latitude":14.606105,"longitude":120.980271,"minZoom":2.7,"maxZoom":20,"rank":5,"population":11100000},{"id":"city:1159146121","kind":"city","name":"Base Casey","latitude":-66.286086,"longitude":110.536214,"minZoom":3,"maxZoom":20,"rank":0,"population":200},{"id":"city:1159146151","kind":"city","name":"Base Esperanza","latitude":-63.375329,"longitude":-57.025902,"minZoom":3,"maxZoom":20,"rank":0,"population":250},{"id":"city:1159146103","kind":"city","name":"Base McMurdo","latitude":-77.732282,"longitude":166.869416,"minZoom":3,"maxZoom":20,"rank":0,"population":1000},{"id":"city:1159146111","kind":"city","name":"Base Mirni","latitude":-66.57553,"longitude":93.006289,"minZoom":3,"maxZoom":20,"rank":0,"population":169},{"id":"city:1159151629","kind":"city","name":"Hong Kong","latitude":22.306927,"longitude":114.183064,"minZoom":3,"maxZoom":20,"rank":0,"population":7206000},{"id":"city:1159151249","kind":"city","name":"Anchorage","latitude":61.21997,"longitude":-149.900215,"minZoom":3,"maxZoom":20,"rank":1,"population":260283},{"id":"city:1159151489","kind":"city","name":"Atlanta","latitude":33.83196,"longitude":-84.401895,"minZoom":3,"maxZoom":20,"rank":1,"population":4506000},{"id":"city:1159151533","kind":"city","name":"Chengdu","latitude":30.671946,"longitude":104.068074,"minZoom":3,"maxZoom":20,"rank":1,"population":4123000},{"id":"city:1159151491","kind":"city","name":"Chicago","latitude":41.831937,"longitude":-87.752001,"minZoom":3,"maxZoom":20,"rank":1,"population":8990000},{"id":"city:1159151485","kind":"city","name":"Houston","latitude":29.82192,"longitude":-95.341925,"minZoom":3,"maxZoom":20,"rank":1,"population":4459000},{"id":"city:1159151621","kind":"city","name":"São Paulo","latitude":-23.556734,"longitude":-46.626966,"minZoom":3,"maxZoom":20,"rank":1,"population":18845000},{"id":"admin1:1159307923","kind":"admin1","name":"Alagoas","latitude":-9.77391,"longitude":-36.6917,"minZoom":3,"maxZoom":20,"rank":2},{"id":"admin1:1159308867","kind":"admin1","name":"Amapá","latitude":1.41157,"longitude":-51.6842,"minZoom":3,"maxZoom":20,"rank":2},{"id":"admin1:1159307981","kind":"admin1","name":"Amazonas","latitude":-4.21774,"longitude":-63.7853,"minZoom":3,"maxZoom":20,"rank":2},{"id":"admin1:1159307841","kind":"admin1","name":"Bahía","latitude":-12.3651,"longitude":-41.8027,"minZoom":3,"maxZoom":20,"rank":2},{"id":"admin1:1159307917","kind":"admin1","name":"Ceará","latitude":-5.37602,"longitude":-39.3429,"minZoom":3,"maxZoom":20,"rank":2},{"id":"admin1:1159307929","kind":"admin1","name":"Espírito Santo","latitude":-19.6916,"longitude":-40.5436,"minZoom":3,"maxZoom":20,"rank":2},{"id":"admin1:1159310053","kind":"admin1","name":"Estado de Acre","latitude":-8.9285,"longitude":-70.2976,"minZoom":3,"maxZoom":20,"rank":2},{"id":"admin1:1159307777","kind":"admin1","name":"Estado de Río de Janeiro","latitude":-22.4049,"longitude":-43.1152,"minZoom":3,"maxZoom":20,"rank":2},{"id":"admin1:1159309727","kind":"admin1","name":"Estado de São Paulo","latitude":-22.2267,"longitude":-48.5206,"minZoom":3,"maxZoom":20,"rank":2},{"id":"admin1:1159309897","kind":"admin1","name":"Goiás","latitude":-15.863,"longitude":-49.5786,"minZoom":3,"maxZoom":20,"rank":2},{"id":"admin1:1159315271","kind":"admin1","name":"Gunma","latitude":36.5592,"longitude":139.025,"minZoom":3,"maxZoom":20,"rank":2},{"id":"admin1:1159315225","kind":"admin1","name":"Kagoshima","latitude":29.4572,"longitude":129.601,"minZoom":3,"maxZoom":20,"rank":2},{"id":"admin1:1159307935","kind":"admin1","name":"Maranhão","latitude":-5.01897,"longitude":-45.389,"minZoom":3,"maxZoom":20,"rank":2},{"id":"admin1:1159307909","kind":"admin1","name":"Mato Grosso","latitude":-13.3926,"longitude":-55.9235,"minZoom":3,"maxZoom":20,"rank":2},{"id":"admin1:1159307905","kind":"admin1","name":"Mato Grosso do Sul","latitude":-20.6756,"longitude":-54.5502,"minZoom":3,"maxZoom":20,"rank":2},{"id":"admin1:1159307907","kind":"admin1","name":"Minas Gerais","latitude":-18.5895,"longitude":-44.4808,"minZoom":3,"maxZoom":20,"rank":2},{"id":"admin1:1159315235","kind":"admin1","name":"Nagasaki","latitude":32.6745,"longitude":128.755,"minZoom":3,"maxZoom":20,"rank":2},{"id":"admin1:1159314883","kind":"admin1","name":"Okinawa","latitude":24.3349,"longitude":123.802,"minZoom":3,"maxZoom":20,"rank":2},{"id":"admin1:1159307941","kind":"admin1","name":"Pará","latitude":-4.44313,"longitude":-52.6491,"minZoom":3,"maxZoom":20,"rank":2},{"id":"admin1:1159307931","kind":"admin1","name":"Paraíba","latitude":-7.34234,"longitude":-36.2726,"minZoom":3,"maxZoom":20,"rank":2},{"id":"admin1:1159307913","kind":"admin1","name":"Paraná","latitude":-24.6618,"longitude":-51.3228,"minZoom":3,"maxZoom":20,"rank":2},{"id":"admin1:1159309901","kind":"admin1","name":"Pernambuco","latitude":-8.47283,"longitude":-37.2958,"minZoom":3,"maxZoom":20,"rank":2},{"id":"admin1:1159307921","kind":"admin1","name":"Piauí","latitude":-8.08698,"longitude":-43.1974,"minZoom":3,"maxZoom":20,"rank":2},{"id":"admin1:1159307975","kind":"admin1","name":"Río Grande del Norte","latitude":-5.66157,"longitude":-36.5472,"minZoom":3,"maxZoom":20,"rank":2},{"id":"admin1:1159307911","kind":"admin1","name":"Río Grande del Sur","latitude":-29.7277,"longitude":-53.656,"minZoom":3,"maxZoom":20,"rank":2},{"id":"admin1:1159307983","kind":"admin1","name":"Rondônia","latitude":-10.9712,"longitude":-63.1439,"minZoom":3,"maxZoom":20,"rank":2},{"id":"admin1:1159308883","kind":"admin1","name":"Roraima","latitude":1.93803,"longitude":-61.3325,"minZoom":3,"maxZoom":20,"rank":2},{"id":"admin1:1159307915","kind":"admin1","name":"Santa Catarina","latitude":-27.0392,"longitude":-51.1586,"minZoom":3,"maxZoom":20,"rank":2},{"id":"admin1:1159307933","kind":"admin1","name":"Sergipe","latitude":-10.5918,"longitude":-37.3836,"minZoom":3,"maxZoom":20,"rank":2},{"id":"admin1:1159307925","kind":"admin1","name":"Tocantins","latitude":-10.223,"longitude":-48.2502,"minZoom":3,"maxZoom":20,"rank":2},{"id":"city:1159151537","kind":"city","name":"Osaka","latitude":34.751981,"longitude":135.458199,"minZoom":3,"maxZoom":20,"rank":2,"population":11294000},{"id":"city:1159151059","kind":"city","name":"Ottawa","latitude":45.418643,"longitude":-75.701961,"minZoom":3,"maxZoom":20,"rank":2,"population":1145000},{"id":"country:1159320517","kind":"country","name":"Colombia","latitude":3.373111,"longitude":-73.174347,"minZoom":3,"maxZoom":7,"rank":2},{"id":"country:1159321187","kind":"country","name":"Portugal","latitude":39.606675,"longitude":-8.271754,"minZoom":3,"maxZoom":8,"rank":2},{"id":"admin1:1159313303","kind":"admin1","name":"Isla de Navidad","latitude":-10.4913,"longitude":105.648,"minZoom":3,"maxZoom":20,"rank":3},{"id":"admin1:1159311167","kind":"admin1","name":"islas Cocos","latitude":-12.1915,"longitude":96.905,"minZoom":3,"maxZoom":20,"rank":3},{"id":"city:1159151549","kind":"city","name":"Adís Abeba","latitude":9.035256,"longitude":38.698059,"minZoom":3,"maxZoom":20,"rank":3,"population":3100000},{"id":"city:1159151515","kind":"city","name":"Johannesburgo","latitude":-26.168099,"longitude":28.028064,"minZoom":3,"maxZoom":20,"rank":3,"population":3435000},{"id":"city:1159151539","kind":"city","name":"Kinsasa","latitude":-4.327778,"longitude":15.313026,"minZoom":3,"maxZoom":20,"rank":3,"population":7843000},{"id":"city:1159151503","kind":"city","name":"Madrid","latitude":40.401972,"longitude":-3.685298,"minZoom":3,"maxZoom":20,"rank":3,"population":5567000},{"id":"city:1159151565","kind":"city","name":"Melbourne","latitude":-37.818086,"longitude":144.97307,"minZoom":3,"maxZoom":20,"rank":3,"population":4170000},{"id":"city:1159150925","kind":"city","name":"Punta Arenas","latitude":-53.164986,"longitude":-70.939996,"minZoom":3,"maxZoom":20,"rank":3,"population":117430},{"id":"city:1159151523","kind":"city","name":"Seúl","latitude":37.568295,"longitude":126.997785,"minZoom":3,"maxZoom":20,"rank":3,"population":9796000},{"id":"country:1159320319","kind":"country","name":"Afganistán","latitude":34.164262,"longitude":66.496586,"minZoom":3,"maxZoom":7,"rank":3},{"id":"country:1159320323","kind":"country","name":"Angola","latitude":-12.182762,"longitude":17.984249,"minZoom":3,"maxZoom":7,"rank":3},{"id":"country:1159320407","kind":"country","name":"Bangladés","latitude":24.214956,"longitude":89.684963,"minZoom":3,"maxZoom":8,"rank":3},{"id":"country:1159321067","kind":"country","name":"Birmania","latitude":21.573855,"longitude":95.804497,"minZoom":3,"maxZoom":8,"rank":3},{"id":"country:1159320439","kind":"country","name":"Bolivia","latitude":-16.666015,"longitude":-64.593433,"minZoom":3,"maxZoom":7.5,"rank":3},{"id":"country:1159320405","kind":"country","name":"Burkina Faso","latitude":12.673048,"longitude":-1.36388,"minZoom":3,"maxZoom":8,"rank":3},{"id":"country:1159320979","kind":"country","name":"Camboya","latitude":12.647584,"longitude":104.50487,"minZoom":3,"maxZoom":8,"rank":3},{"id":"country:1159320509","kind":"country","name":"Camerún","latitude":4.585041,"longitude":12.473488,"minZoom":3,"maxZoom":8,"rank":3},{"id":"country:1159321301","kind":"country","name":"Chad","latitude":15.142959,"longitude":18.645041,"minZoom":3,"maxZoom":8,"rank":3},{"id":"country:1159321181","kind":"country","name":"Corea del Norte","latitude":39.885252,"longitude":126.444516,"minZoom":3,"maxZoom":8,"rank":3},{"id":"country:1159320567","kind":"country","name":"Ecuador","latitude":-1.259076,"longitude":-78.188375,"minZoom":3,"maxZoom":8,"rank":3},{"id":"country:1159320623","kind":"country","name":"Finlandia","latitude":63.252361,"longitude":27.276449,"minZoom":3,"maxZoom":8,"rank":3},{"id":"country:1159320815","kind":"country","name":"Guatemala","latitude":14.982133,"longitude":-90.497134,"minZoom":3,"maxZoom":8,"rank":3},{"id":"country:1159320795","kind":"country","name":"Guinea","latitude":10.618516,"longitude":-10.016402,"minZoom":3,"maxZoom":8,"rank":3},{"id":"country:1159320887","kind":"country","name":"Irak","latitude":33.09403,"longitude":43.26181,"minZoom":3,"maxZoom":7.5,"rank":3},{"id":"country:1159320877","kind":"country","name":"Irlanda","latitude":53.078726,"longitude":-7.798588,"minZoom":3,"maxZoom":8,"rank":3},{"id":"country:1159321249","kind":"country","name":"Islas Salomón","latitude":-8.029548,"longitude":159.170468,"minZoom":3,"maxZoom":8,"rank":3},{"id":"country:1159321017","kind":"country","name":"Libia","latitude":26.638944,"longitude":18.011015,"minZoom":3,"maxZoom":8,"rank":3},{"id":"country:1159321083","kind":"country","name":"Malasia","latitude":2.528667,"longitude":113.83708,"minZoom":3,"maxZoom":8,"rank":3},{"id":"country:1159321063","kind":"country","name":"Malí","latitude":18.692713,"longitude":-2.038455,"minZoom":3,"maxZoom":7,"rank":3},{"id":"country:1159321075","kind":"country","name":"Mauritania","latitude":19.587062,"longitude":-9.740299,"minZoom":3,"maxZoom":8,"rank":3},{"id":"country:1159321071","kind":"country","name":"Mongolia","latitude":45.997488,"longitude":104.150405,"minZoom":3,"maxZoom":7,"rank":3},{"id":"country:1159321073","kind":"country","name":"Mozambique","latitude":-13.94323,"longitude":37.83789,"minZoom":3,"maxZoom":8,"rank":3},{"id":"country:1159321085","kind":"country","name":"Namibia","latitude":-20.575298,"longitude":17.108166,"minZoom":3,"maxZoom":7.5,"rank":3},{"id":"country:1159321121","kind":"country","name":"Nepal","latitude":28.297925,"longitude":83.639914,"minZoom":3,"maxZoom":8,"rank":3},{"id":"country:1159321087","kind":"country","name":"Níger","latitude":17.446195,"longitude":9.504356,"minZoom":3,"maxZoom":8,"rank":3},{"id":"country:1159321109","kind":"country","name":"Noruega","latitude":61.357092,"longitude":9.679975,"minZoom":3,"maxZoom":7,"rank":3},{"id":"country:1159321219","kind":"country","name":"Ruanda","latitude":-1.897196,"longitude":30.103894,"minZoom":3,"maxZoom":8,"rank":3},{"id":"country:1159321199","kind":"country","name":"Rumania","latitude":45.733237,"longitude":24.972624,"minZoom":3,"maxZoom":8,"rank":3},{"id":"country:1159321295","kind":"country","name":"Siria","latitude":35.006636,"longitude":38.277783,"minZoom":3,"maxZoom":8,"rank":3},{"id":"country:1159321025","kind":"country","name":"Sri Lanka","latitude":7.581097,"longitude":80.704823,"minZoom":3,"maxZoom":8,"rank":3},{"id":"country:1159321235","kind":"country","name":"Sudán del Sur","latitude":7.230477,"longitude":30.390151,"minZoom":3,"maxZoom":8,"rank":3},{"id":"country:1159321337","kind":"country","name":"Tanzania","latitude":-6.051866,"longitude":34.959183,"minZoom":3,"maxZoom":8,"rank":3},{"id":"country:1159321327","kind":"country","name":"Túnez","latitude":33.687263,"longitude":9.007881,"minZoom":3,"maxZoom":8,"rank":3},{"id":"country:1159321343","kind":"country","name":"Uganda","latitude":1.972589,"longitude":32.948555,"minZoom":3,"maxZoom":8,"rank":3},{"id":"country:1159321405","kind":"country","name":"Uzbekistán","latitude":41.693603,"longitude":64.005429,"minZoom":3,"maxZoom":8,"rank":3},{"id":"country:1159321425","kind":"country","name":"Yemen","latitude":15.328226,"longitude":45.874383,"minZoom":3,"maxZoom":8,"rank":3},{"id":"country:1159321439","kind":"country","name":"Zambia","latitude":-14.660804,"longitude":26.395298,"minZoom":3,"maxZoom":8,"rank":3},{"id":"country:1159320379","kind":"country","name":"Austria","latitude":47.518859,"longitude":14.130515,"minZoom":3,"maxZoom":8,"rank":4},{"id":"country:1159320427","kind":"country","name":"Bielorrusia","latitude":53.821888,"longitude":28.417701,"minZoom":3,"maxZoom":8,"rank":4},{"id":"country:1159320547","kind":"country","name":"Dinamarca","latitude":55.966965,"longitude":9.018163,"minZoom":3,"maxZoom":8,"rank":4},{"id":"country:1159320693","kind":"country","name":"Gabón","latitude":-0.437739,"longitude":11.835939,"minZoom":3,"maxZoom":8,"rank":4},{"id":"country:1159320895","kind":"country","name":"Israel","latitude":30.911148,"longitude":34.847915,"minZoom":3,"maxZoom":8,"rank":4},{"id":"country:1159320977","kind":"country","name":"Kirguistán","latitude":41.66854,"longitude":74.532637,"minZoom":3,"maxZoom":8,"rank":4},{"id":"country:1159321195","kind":"country","name":"Paraguay","latitude":-21.674509,"longitude":-60.146394,"minZoom":3,"maxZoom":8,"rank":4},{"id":"country:1159321423","kind":"country","name":"Samoa","latitude":-13.639139,"longitude":-172.438241,"minZoom":3,"maxZoom":8,"rank":4},{"id":"country:1159321309","kind":"country","name":"Turkmenistán","latitude":39.855246,"longitude":58.676647,"minZoom":3,"maxZoom":8,"rank":4},{"id":"country:1159321353","kind":"country","name":"Uruguay","latitude":-32.961127,"longitude":-55.966942,"minZoom":3,"maxZoom":8,"rank":4},{"id":"city:1159151509","kind":"city","name":"Bangkok","latitude":13.751945,"longitude":100.514699,"minZoom":3,"maxZoom":20,"rank":5,"population":6704000},{"id":"city:1159151579","kind":"city","name":"Estambul","latitude":41.106942,"longitude":29.008056,"minZoom":3,"maxZoom":20,"rank":5,"population":10061000},{"id":"city:1159151511","kind":"city","name":"Lima","latitude":-12.046067,"longitude":-77.052008,"minZoom":3,"maxZoom":20,"rank":5,"population":8012000},{"id":"city:1159151551","kind":"city","name":"Teherán","latitude":35.673889,"longitude":51.422398,"minZoom":3,"maxZoom":20,"rank":5,"population":7873000},{"id":"country:1159321363","kind":"country","name":"Puerto Rico","latitude":18.234668,"longitude":-66.481065,"minZoom":3,"maxZoom":8,"rank":5},{"id":"admin1:1159312177","kind":"admin1","name":"Aichi","latitude":34.9973,"longitude":137.214,"minZoom":3,"maxZoom":20,"rank":6},{"id":"admin1:1159312199","kind":"admin1","name":"Akita","latitude":39.7318,"longitude":140.334,"minZoom":3,"maxZoom":20,"rank":6},{"id":"admin1:1159312201","kind":"admin1","name":"Aomori","latitude":40.6385,"longitude":140.769,"minZoom":3,"maxZoom":20,"rank":6},{"id":"admin1:1159309421","kind":"admin1","name":"Chiba","latitude":35.489,"longitude":140.318,"minZoom":3,"maxZoom":20,"rank":6},{"id":"admin1:1159311139","kind":"admin1","name":"Ehime","latitude":33.8141,"longitude":132.916,"minZoom":3,"maxZoom":20,"rank":6},{"id":"admin1:1159309409","kind":"admin1","name":"Fukui","latitude":35.9297,"longitude":136.316,"minZoom":3,"maxZoom":20,"rank":6},{"id":"admin1:1159312205","kind":"admin1","name":"Fukushima","latitude":37.4153,"longitude":140.099,"minZoom":3,"maxZoom":20,"rank":6},{"id":"admin1:1159309533","kind":"admin1","name":"Hokkaidō","latitude":43.37,"longitude":142.805,"minZoom":3,"maxZoom":20,"rank":6},{"id":"admin1:1159309339","kind":"admin1","name":"Hyōgo","latitude":35.063,"longitude":134.837,"minZoom":3,"maxZoom":20,"rank":6},{"id":"admin1:1159309423","kind":"admin1","name":"Ibaraki","latitude":36.2773,"longitude":140.257,"minZoom":3,"maxZoom":20,"rank":6},{"id":"admin1:1159312025","kind":"admin1","name":"Ishikawa","latitude":36.5654,"longitude":136.677,"minZoom":3,"maxZoom":20,"rank":6},{"id":"admin1:1159312207","kind":"admin1","name":"Iwate","latitude":39.5715,"longitude":141.364,"minZoom":3,"maxZoom":20,"rank":6},{"id":"admin1:1159311907","kind":"admin1","name":"Kagawa","latitude":34.2162,"longitude":134.001,"minZoom":3,"maxZoom":20,"rank":6},{"id":"admin1:1159312191","kind":"admin1","name":"Kanagawa","latitude":35.4378,"longitude":139.344,"minZoom":3,"maxZoom":20,"rank":6},{"id":"admin1:1159311863","kind":"admin1","name":"Kōchi","latitude":33.6129,"longitude":133.442,"minZoom":3,"maxZoom":20,"rank":6},{"id":"admin1:1159311901","kind":"admin1","name":"Kumamoto","latitude":32.588,"longitude":130.834,"minZoom":3,"maxZoom":20,"rank":6},{"id":"admin1:1159312181","kind":"admin1","name":"Mie","latitude":34.5679,"longitude":136.386,"minZoom":3,"maxZoom":20,"rank":6},{"id":"admin1:1159312209","kind":"admin1","name":"Miyagi","latitude":38.5307,"longitude":140.972,"minZoom":3,"maxZoom":20,"rank":6},{"id":"admin1:1159311903","kind":"admin1","name":"Miyazaki","latitude":32.0981,"longitude":131.286,"minZoom":3,"maxZoom":20,"rank":6},{"id":"admin1:1159312183","kind":"admin1","name":"Nagano","latitude":36.0666,"longitude":138.019,"minZoom":3,"maxZoom":20,"rank":6},{"id":"admin1:1159309415","kind":"admin1","name":"Nara","latitude":34.2815,"longitude":135.877,"minZoom":3,"maxZoom":20,"rank":6},{"id":"admin1:1159312033","kind":"admin1","name":"Niigata","latitude":37.5471,"longitude":139.005,"minZoom":3,"maxZoom":20,"rank":6},{"id":"admin1:1159312173","kind":"admin1","name":"Okayama","latitude":34.8521,"longitude":133.831,"minZoom":3,"maxZoom":20,"rank":6},{"id":"admin1:1159311895","kind":"admin1","name":"Saga","latitude":33.0097,"longitude":130.147,"minZoom":3,"maxZoom":20,"rank":6},{"id":"admin1:1159312193","kind":"admin1","name":"Saitama","latitude":36.0173,"longitude":139.287,"minZoom":3,"maxZoom":20,"rank":6},{"id":"admin1:1159309417","kind":"admin1","name":"Shiga","latitude":35.1832,"longitude":136.093,"minZoom":3,"maxZoom":20,"rank":6},{"id":"admin1:1159311913","kind":"admin1","name":"Shimane","latitude":35.0972,"longitude":132.603,"minZoom":3,"maxZoom":20,"rank":6},{"id":"admin1:1159312187","kind":"admin1","name":"Shizuoka","latitude":35.0359,"longitude":138.306,"minZoom":3,"maxZoom":20,"rank":6},{"id":"admin1:1159312195","kind":"admin1","name":"Tochigi","latitude":36.6593,"longitude":139.786,"minZoom":3,"maxZoom":20,"rank":6},{"id":"admin1:1159311909","kind":"admin1","name":"Tokushima","latitude":33.8546,"longitude":134.2,"minZoom":3,"maxZoom":20,"rank":6},{"id":"admin1:1159312175","kind":"admin1","name":"Tottori","latitude":35.3657,"longitude":133.819,"minZoom":3,"maxZoom":20,"rank":6},{"id":"admin1:1159312189","kind":"admin1","name":"Toyama","latitude":36.596,"longitude":137.246,"minZoom":3,"maxZoom":20,"rank":6},{"id":"admin1:1159309419","kind":"admin1","name":"Wakayama","latitude":33.93,"longitude":135.401,"minZoom":3,"maxZoom":20,"rank":6},{"id":"admin1:1159312211","kind":"admin1","name":"Yamagata","latitude":38.4024,"longitude":140.084,"minZoom":3,"maxZoom":20,"rank":6},{"id":"admin1:1159311893","kind":"admin1","name":"Yamaguchi","latitude":34.2154,"longitude":131.645,"minZoom":3,"maxZoom":20,"rank":6},{"id":"admin1:1159312197","kind":"admin1","name":"Yamanashi","latitude":35.6149,"longitude":138.645,"minZoom":3,"maxZoom":20,"rank":6},{"id":"city:1159151493","kind":"city","name":"Caracas","latitude":10.502944,"longitude":-66.918983,"minZoom":3,"maxZoom":20,"rank":6,"population":2985000},{"id":"country:1159320615","kind":"country","name":"Estonia","latitude":58.724865,"longitude":25.867126,"minZoom":3,"maxZoom":8,"rank":6},{"id":"country:1159320625","kind":"country","name":"Fiyi","latitude":-17.826099,"longitude":177.975427,"minZoom":3,"maxZoom":8,"rank":6},{"id":"country:1159321359","kind":"country","name":"Guam","latitude":13.354173,"longitude":144.703614,"minZoom":3,"maxZoom":10,"rank":6},{"id":"admin1:1159307927","kind":"admin1","name":"Federal","latitude":-15.7665,"longitude":-47.7902,"minZoom":3,"maxZoom":20,"rank":7},{"id":"admin1:1159311899","kind":"admin1","name":"Fukuoka","latitude":33.4906,"longitude":130.616,"minZoom":3,"maxZoom":20,"rank":7},{"id":"admin1:1159312179","kind":"admin1","name":"Gifu","latitude":35.8522,"longitude":136.941,"minZoom":3,"maxZoom":20,"rank":7},{"id":"admin1:1159311137","kind":"admin1","name":"Hiroshima","latitude":34.6067,"longitude":132.853,"minZoom":3,"maxZoom":20,"rank":7},{"id":"admin1:1159309411","kind":"admin1","name":"Kioto","latitude":35.2117,"longitude":135.451,"minZoom":3,"maxZoom":20,"rank":7},{"id":"admin1:1159311905","kind":"admin1","name":"Ōita","latitude":33.2006,"longitude":131.449,"minZoom":3,"maxZoom":20,"rank":7},{"id":"admin1:1159308417","kind":"admin1","name":"Osaka","latitude":34.5993,"longitude":135.519,"minZoom":3,"maxZoom":20,"rank":7},{"id":"admin1:1159311135","kind":"admin1","name":"Tokio","latitude":35.6578,"longitude":139.407,"minZoom":3,"maxZoom":20,"rank":7},{"id":"city:1159151507","kind":"city","name":"Estocolmo","latitude":59.352706,"longitude":18.095389,"minZoom":3,"maxZoom":20,"rank":7,"population":1264000},{"id":"city:1159151703","kind":"city","name":"Auckland","latitude":-36.848055,"longitude":174.763027,"minZoom":3,"maxZoom":20,"rank":8,"population":1377200},{"id":"city:1159151513","kind":"city","name":"Dakar","latitude":14.717778,"longitude":-17.475076,"minZoom":3,"maxZoom":20,"rank":8,"population":2604000},{"id":"country:1159320643","kind":"country","name":"Polinesia Francesa","latitude":-17.628081,"longitude":-149.46157,"minZoom":3.5,"maxZoom":8.5,"rank":4},{"id":"city:1159151203","kind":"city","name":"Jerusalén","latitude":31.778408,"longitude":35.206626,"minZoom":3.7,"maxZoom":20,"rank":0,"population":1029300},{"id":"city:1159151543","kind":"city","name":"Bangalore","latitude":12.971941,"longitude":77.558064,"minZoom":3.7,"maxZoom":20,"rank":1,"population":6787000},{"id":"city:1159151443","kind":"city","name":"Brasilia","latitude":-15.781394,"longitude":-47.917998,"minZoom":3.7,"maxZoom":20,"rank":1,"population":3716996},{"id":"city:1159151617","kind":"city","name":"Calcuta","latitude":22.496915,"longitude":88.32273,"minZoom":3.7,"maxZoom":20,"rank":1,"population":14787000},{"id":"city:1159151483","kind":"city","name":"Denver","latitude":39.741134,"longitude":-104.985962,"minZoom":3.7,"maxZoom":20,"rank":1,"population":2313000},{"id":"city:1159151397","kind":"city","name":"Harbin","latitude":45.75193,"longitude":126.648039,"minZoom":3.7,"maxZoom":20,"rank":1,"population":3621000},{"id":"city:1159150559","kind":"city","name":"Prudhoe Bay","latitude":70.292181,"longitude":-148.66936,"minZoom":3.7,"maxZoom":20,"rank":1,"population":2500},{"id":"city:1159151461","kind":"city","name":"Recife","latitude":-8.0737,"longitude":-34.917551,"minZoom":3.7,"maxZoom":20,"rank":1,"population":3651000},{"id":"city:1159151453","kind":"city","name":"Salvador de Bahía","latitude":-12.968026,"longitude":-38.481933,"minZoom":3.7,"maxZoom":20,"rank":1,"population":3484000},{"id":"city:1159151531","kind":"city","name":"Urumchi","latitude":43.806958,"longitude":87.57306,"minZoom":3.7,"maxZoom":20,"rank":1,"population":3575000},{"id":"city:1159151363","kind":"city","name":"Xi'an","latitude":34.276971,"longitude":108.89305,"minZoom":3.7,"maxZoom":20,"rank":1,"population":4009000},{"id":"city:1159150731","kind":"city","name":"Irkutsk","latitude":52.319971,"longitude":104.245048,"minZoom":3.7,"maxZoom":20,"rank":2,"population":586695},{"id":"city:1159150749","kind":"city","name":"Magadán","latitude":59.57498,"longitude":150.810009,"minZoom":3.7,"maxZoom":20,"rank":2,"population":95282},{"id":"city:1159151527","kind":"city","name":"Monterrey","latitude":25.671941,"longitude":-100.331931,"minZoom":3.7,"maxZoom":20,"rank":2,"population":3712000},{"id":"city:1159150691","kind":"city","name":"Múrmansk","latitude":68.969988,"longitude":33.100036,"minZoom":3.7,"maxZoom":20,"rank":2,"population":319263},{"id":"city:1159149579","kind":"city","name":"Omsk","latitude":54.991934,"longitude":73.398008,"minZoom":3.7,"maxZoom":20,"rank":2,"population":1135000},{"id":"city:1159150703","kind":"city","name":"Samara","latitude":53.196953,"longitude":50.149349,"minZoom":3.7,"maxZoom":20,"rank":2,"population":1137000},{"id":"city:1159151291","kind":"city","name":"San Petersburgo","latitude":59.94096,"longitude":30.314074,"minZoom":3.7,"maxZoom":20,"rank":2,"population":4553000},{"id":"city:1159151165","kind":"city","name":"Adelaida","latitude":-34.933042,"longitude":138.598059,"minZoom":3.7,"maxZoom":20,"rank":3,"population":1145000},{"id":"city:1159151155","kind":"city","name":"Darwin","latitude":-12.425354,"longitude":130.850039,"minZoom":3.7,"maxZoom":20,"rank":3,"population":93080},{"id":"city:1159151475","kind":"city","name":"Perth","latitude":-31.953069,"longitude":115.838053,"minZoom":3.7,"maxZoom":20,"rank":3,"population":1532000},{"id":"city:1159151547","kind":"city","name":"Bagdad","latitude":33.340594,"longitude":44.391923,"minZoom":3.7,"maxZoom":20,"rank":5,"population":5054000},{"id":"city:1159151521","kind":"city","name":"Casablanca","latitude":33.601922,"longitude":-7.618313,"minZoom":3.7,"maxZoom":20,"rank":5,"population":3181000},{"id":"city:1159151561","kind":"city","name":"Kabul","latitude":34.518636,"longitude":69.181314,"minZoom":3.7,"maxZoom":20,"rank":5,"population":3277000},{"id":"city:1159151495","kind":"city","name":"Kiev","latitude":50.435313,"longitude":30.514682,"minZoom":3.7,"maxZoom":20,"rank":5,"population":2709000},{"id":"city:1159151279","kind":"city","name":"La Meca","latitude":21.431967,"longitude":39.818094,"minZoom":3.7,"maxZoom":20,"rank":5,"population":1385000},{"id":"city:1159151581","kind":"city","name":"Riad","latitude":24.642779,"longitude":46.770796,"minZoom":3.7,"maxZoom":20,"rank":5,"population":4465000},{"id":"city:1159151545","kind":"city","name":"Atenas","latitude":37.985272,"longitude":23.731375,"minZoom":3.7,"maxZoom":20,"rank":6,"population":3242000},{"id":"city:1159151501","kind":"city","name":"Taskent","latitude":41.313648,"longitude":69.292987,"minZoom":3.7,"maxZoom":20,"rank":6,"population":2184000},{"id":"city:1159151505","kind":"city","name":"Ginebra","latitude":46.210008,"longitude":6.140028,"minZoom":3.7,"maxZoom":20,"rank":7,"population":1240000},{"id":"city:1159150639","kind":"city","name":"Tromsø","latitude":69.635076,"longitude":18.992025,"minZoom":3.7,"maxZoom":20,"rank":7,"population":52436},{"id":"city:1159151563","kind":"city","name":"Viena","latitude":48.201961,"longitude":16.364693,"minZoom":3.7,"maxZoom":20,"rank":7,"population":2400000},{"id":"city:1159151519","kind":"city","name":"Ámsterdam","latitude":52.351915,"longitude":4.914694,"minZoom":3.7,"maxZoom":20,"rank":8,"population":1031000},{"id":"city:1159151497","kind":"city","name":"Dubái","latitude":25.231942,"longitude":55.278029,"minZoom":3.7,"maxZoom":20,"rank":8,"population":1379000},{"id":"city:1159150587","kind":"city","name":"Reikiavik","latitude":64.150024,"longitude":-21.950015,"minZoom":3.7,"maxZoom":20,"rank":8,"population":166212},{"id":"city:1159151567","kind":"city","name":"Taipéi","latitude":25.035833,"longitude":121.568333,"minZoom":3.7,"maxZoom":20,"rank":8,"population":6900273},{"id":"city:1159146085","kind":"city","name":"Base Palmer","latitude":-64.762413,"longitude":-64.046876,"minZoom":4,"maxZoom":20,"rank":0,"population":46},{"id":"city:1159146083","kind":"city","name":"Base Rothera","latitude":-67.564776,"longitude":-68.123541,"minZoom":4,"maxZoom":20,"rank":0,"population":130},{"id":"city:1159146165","kind":"city","name":"Estación Dumont d'Urville","latitude":-66.775051,"longitude":139.963684,"minZoom":4,"maxZoom":20,"rank":0,"population":120},{"id":"city:1159151395","kind":"city","name":"Baotou","latitude":40.654153,"longitude":109.820074,"minZoom":4,"maxZoom":20,"rank":1,"population":2036000},{"id":"city:1159151441","kind":"city","name":"Belém","latitude":-1.448057,"longitude":-48.481969,"minZoom":4,"maxZoom":20,"rank":1,"population":2167000},{"id":"city:1159151239","kind":"city","name":"Boston","latitude":42.331906,"longitude":-71.07196,"minZoom":4,"maxZoom":20,"rank":1,"population":4467000},{"id":"city:1159151331","kind":"city","name":"Cantón","latitude":23.146927,"longitude":113.323064,"minZoom":4,"maxZoom":20,"rank":1,"population":8829000},{"id":"city:1159151393","kind":"city","name":"Changchun","latitude":43.866954,"longitude":125.338042,"minZoom":4,"maxZoom":20,"rank":1,"population":3183000},{"id":"city:1159151431","kind":"city","name":"Chennai","latitude":13.091934,"longitude":80.278053,"minZoom":4,"maxZoom":20,"rank":1,"population":7163000},{"id":"city:1159151327","kind":"city","name":"Chongqing","latitude":29.566923,"longitude":106.593036,"minZoom":4,"maxZoom":20,"rank":1,"population":6461000},{"id":"city:1159151449","kind":"city","name":"Curitiba","latitude":-25.418067,"longitude":-49.321944,"minZoom":4,"maxZoom":20,"rank":1,"population":3084000},{"id":"city:1159151235","kind":"city","name":"Dallas","latitude":32.82197,"longitude":-96.841963,"minZoom":4,"maxZoom":20,"rank":1,"population":4798000},{"id":"city:1159151405","kind":"city","name":"Delhi","latitude":28.671939,"longitude":77.228058,"minZoom":4,"maxZoom":20,"rank":1,"population":15926000},{"id":"city:1159151245","kind":"city","name":"Detroit","latitude":42.331906,"longitude":-83.082002,"minZoom":4,"maxZoom":20,"rank":1,"population":4101000},{"id":"city:1159150557","kind":"city","name":"Fairbanks","latitude":64.836984,"longitude":-147.710659,"minZoom":4,"maxZoom":20,"rank":1,"population":56993},{"id":"city:1159151451","kind":"city","name":"Fortaleza","latitude":-3.748072,"longitude":-38.581927,"minZoom":4,"maxZoom":20,"rank":1,"population":3602319},{"id":"city:1159151387","kind":"city","name":"Hangzhou","latitude":30.25192,"longitude":120.168073,"minZoom":4,"maxZoom":20,"rank":1,"population":3007000},{"id":"city:1159151221","kind":"city","name":"Honolulu","latitude":21.308822,"longitude":-157.859944,"minZoom":4,"maxZoom":20,"rank":1,"population":786000},{"id":"city:1159151407","kind":"city","name":"Hyderabad","latitude":17.401929,"longitude":78.478008,"minZoom":4,"maxZoom":20,"rank":1,"population":6376000},{"id":"city:1159151423","kind":"city","name":"Jaipur","latitude":26.923079,"longitude":75.808042,"minZoom":4,"maxZoom":20,"rank":1,"population":2917000},{"id":"city:1159151379","kind":"city","name":"Jinan","latitude":36.676928,"longitude":116.993073,"minZoom":4,"maxZoom":20,"rank":1,"population":2798000},{"id":"city:1159150883","kind":"city","name":"Jotán","latitude":37.099711,"longitude":79.926945,"minZoom":4,"maxZoom":20,"rank":1,"population":408894},{"id":"city:1159150555","kind":"city","name":"Juneau","latitude":58.314127,"longitude":-134.419997,"minZoom":4,"maxZoom":20,"rank":1,"population":30711},{"id":"city:1159151425","kind":"city","name":"Kanpur","latitude":26.461945,"longitude":80.31805,"minZoom":4,"maxZoom":20,"rank":1,"population":3162000},{"id":"city:1159151371","kind":"city","name":"Kunming","latitude":25.071926,"longitude":102.678029,"minZoom":4,"maxZoom":20,"rank":1,"population":2931000},{"id":"city:1159151321","kind":"city","name":"Lanzhou","latitude":36.057974,"longitude":103.790054,"minZoom":4,"maxZoom":20,"rank":1,"population":2561000},{"id":"city:1159150879","kind":"city","name":"Lhasa","latitude":29.645024,"longitude":91.10001,"minZoom":4,"maxZoom":20,"rank":1,"population":219599},{"id":"city:1159151005","kind":"city","name":"Manaos","latitude":-3.098086,"longitude":-60.001963,"minZoom":4,"maxZoom":20,"rank":1,"population":1753000},{"id":"city:1159151307","kind":"city","name":"Medan","latitude":3.58192,"longitude":98.648094,"minZoom":4,"maxZoom":20,"rank":1,"population":2115000},{"id":"city:1159151219","kind":"city","name":"Mineápolis","latitude":44.981925,"longitude":-93.253732,"minZoom":4,"maxZoom":20,"rank":1,"population":2616000},{"id":"city:1159151413","kind":"city","name":"Nagpur","latitude":21.171906,"longitude":79.088048,"minZoom":4,"maxZoom":20,"rank":1,"population":2454000},{"id":"city:1159151385","kind":"city","name":"Nankín","latitude":32.051965,"longitude":118.778029,"minZoom":4,"maxZoom":20,"rank":1,"population":3679000},{"id":"city:1159151323","kind":"city","name":"Nanning","latitude":22.821934,"longitude":108.318099,"minZoom":4,"maxZoom":20,"rank":1,"population":2167000},{"id":"city:1159150551","kind":"city","name":"Nome","latitude":64.5061,"longitude":-165.406374,"minZoom":4,"maxZoom":20,"rank":1,"population":3485},{"id":"city:1159151233","kind":"city","name":"Nueva Orleans","latitude":29.996948,"longitude":-90.041913,"minZoom":4,"maxZoom":20,"rank":1,"population":785000},{"id":"city:1159151225","kind":"city","name":"Phoenix","latitude":33.541926,"longitude":-112.071938,"minZoom":4,"maxZoom":20,"rank":1,"population":3551000},{"id":"city:1159150487","kind":"city","name":"Portland","latitude":45.52197,"longitude":-122.681936,"minZoom":4,"maxZoom":20,"rank":1,"population":1875000},{"id":"city:1159151447","kind":"city","name":"Porto Alegre","latitude":-30.048069,"longitude":-51.201958,"minZoom":4,"maxZoom":20,"rank":1,"population":3917000},{"id":"city:1159151411","kind":"city","name":"Pune","latitude":18.531963,"longitude":73.848058,"minZoom":4,"maxZoom":20,"rank":1,"population":4672000},{"id":"city:1159150895","kind":"city","name":"Qiqihar","latitude":47.346923,"longitude":123.988046,"minZoom":4,"maxZoom":20,"rank":1,"population":1641000},{"id":"city:1159150489","kind":"city","name":"Salt Lake City","latitude":40.776962,"longitude":-111.931998,"minZoom":4,"maxZoom":20,"rank":1,"population":966000},{"id":"city:1159151227","kind":"city","name":"San Diego","latitude":32.82197,"longitude":-117.181936,"minZoom":4,"maxZoom":20,"rank":1,"population":2916000},{"id":"city:1159151231","kind":"city","name":"San Luis","latitude":38.636964,"longitude":-90.241926,"minZoom":4,"maxZoom":20,"rank":1,"population":2199000},{"id":"city:1159151223","kind":"city","name":"Seattle","latitude":47.571948,"longitude":-122.341931,"minZoom":4,"maxZoom":20,"rank":1,"population":3074000},{"id":"city:1159151377","kind":"city","name":"Shenyang","latitude":41.806925,"longitude":123.448028,"minZoom":4,"maxZoom":20,"rank":1,"population":4787000},{"id":"city:1159151339","kind":"city","name":"Surabaya","latitude":-7.24729,"longitude":112.748887,"minZoom":4,"maxZoom":20,"rank":1,"population":2845000},{"id":"city:1159151435","kind":"city","name":"Surat","latitude":21.20193,"longitude":72.838094,"minZoom":4,"maxZoom":20,"rank":1,"population":3842000},{"id":"city:1159151365","kind":"city","name":"Taiyuan","latitude":37.876958,"longitude":112.543112,"minZoom":4,"maxZoom":20,"rank":1,"population":2913000},{"id":"city:1159151381","kind":"city","name":"Tianjin","latitude":39.131972,"longitude":117.198073,"minZoom":4,"maxZoom":20,"rank":1,"population":7180000},{"id":"city:1159151367","kind":"city","name":"Wuhan","latitude":30.581977,"longitude":114.268071,"minZoom":4,"maxZoom":20,"rank":1,"population":7243000},{"id":"city:1159151375","kind":"city","name":"Zhengzhou","latitude":34.756942,"longitude":113.663147,"minZoom":4,"maxZoom":20,"rank":1,"population":2636000},{"id":"city:1159150799","kind":"city","name":"Abuya","latitude":9.085279,"longitude":7.531382,"minZoom":4,"maxZoom":20,"rank":2,"population":1576000},{"id":"city:1159150693","kind":"city","name":"Arjánguelsk","latitude":64.574959,"longitude":40.545008,"minZoom":4,"maxZoom":20,"rank":2,"population":356051},{"id":"city:1159151035","kind":"city","name":"Calgary","latitude":51.084938,"longitude":-114.081944,"minZoom":4,"maxZoom":20,"rank":2,"population":1110000},{"id":"city:1159150767","kind":"city","name":"Cancún","latitude":21.16996,"longitude":-86.830008,"minZoom":4,"maxZoom":20,"rank":2,"population":542043},{"id":"city:1159150753","kind":"city","name":"Chihuahua","latitude":28.646927,"longitude":-106.086928,"minZoom":4,"maxZoom":20,"rank":2,"population":793000},{"id":"city:1159151473","kind":"city","name":"Chittagong","latitude":22.331938,"longitude":91.798022,"minZoom":4,"maxZoom":20,"rank":2,"population":4529000},{"id":"city:1159151027","kind":"city","name":"Churchill","latitude":58.765985,"longitude":-94.165994,"minZoom":4,"maxZoom":20,"rank":2,"population":1000},{"id":"city:1159151467","kind":"city","name":"Dacca","latitude":23.725006,"longitude":90.406634,"minZoom":4,"maxZoom":20,"rank":2,"population":12797394},{"id":"city:1159151455","kind":"city","name":"Edmonton","latitude":53.551971,"longitude":-113.501928,"minZoom":4,"maxZoom":20,"rank":2,"population":1058000},{"id":"city:1159151293","kind":"city","name":"Guadalajara","latitude":20.671962,"longitude":-103.33198,"minZoom":4,"maxZoom":20,"rank":2,"population":4198000},{"id":"city:1159151069","kind":"city","name":"Halifax","latitude":44.650025,"longitude":-63.600005,"minZoom":4,"maxZoom":20,"rank":2,"population":359111},{"id":"city:1159151389","kind":"city","name":"Hiroshima","latitude":34.389781,"longitude":132.440967,"minZoom":4,"maxZoom":20,"rank":2,"population":2045000},{"id":"city:1159151287","kind":"city","name":"Karachi","latitude":24.871938,"longitude":66.988063,"minZoom":4,"maxZoom":20,"rank":2,"population":12130000},{"id":"city:1159151285","kind":"city","name":"Lahore","latitude":31.561917,"longitude":74.348079,"minZoom":4,"maxZoom":20,"rank":2,"population":6577000},{"id":"city:1159151457","kind":"city","name":"Montreal","latitude":45.501945,"longitude":-73.585243,"minZoom":4,"maxZoom":20,"rank":2,"population":3678000},{"id":"city:1159151045","kind":"city","name":"Naujaat","latitude":66.529467,"longitude":-86.282935,"minZoom":4,"maxZoom":20,"rank":2,"population":1000},{"id":"city:1159150775","kind":"city","name":"Perm","latitude":58.001906,"longitude":56.248047,"minZoom":4,"maxZoom":20,"rank":2,"population":997000},{"id":"city:1159151037","kind":"city","name":"Prince Rupert","latitude":54.31667,"longitude":-130.329988,"minZoom":4,"maxZoom":20,"rank":2,"population":14708},{"id":"city:1159151295","kind":"city","name":"Puebla de Zaragoza","latitude":19.051906,"longitude":-98.201983,"minZoom":4,"maxZoom":20,"rank":2,"population":2195000},{"id":"city:1159151065","kind":"city","name":"Quebec","latitude":46.839969,"longitude":-71.24561,"minZoom":4,"maxZoom":20,"rank":2,"population":624177},{"id":"city:1159151071","kind":"city","name":"San Juan de Terranova","latitude":47.584988,"longitude":-52.681007,"minZoom":4,"maxZoom":20,"rank":2,"population":131469},{"id":"city:1159151399","kind":"city","name":"Sapporo","latitude":43.076925,"longitude":141.338099,"minZoom":4,"maxZoom":20,"rank":2,"population":2544000},{"id":"city:1159150709","kind":"city","name":"Surgut","latitude":61.259942,"longitude":73.425017,"minZoom":4,"maxZoom":20,"rank":2,"population":400000},{"id":"city:1159150747","kind":"city","name":"Tiksi","latitude":71.626886,"longitude":128.834967,"minZoom":4,"maxZoom":20,"rank":2,"population":5700},{"id":"city:1159150685","kind":"city","name":"Tomsk","latitude":56.494987,"longitude":84.975009,"minZoom":4,"maxZoom":20,"rank":2,"population":535479},{"id":"city:1159150697","kind":"city","name":"Volgogrado","latitude":48.711956,"longitude":44.498015,"minZoom":4,"maxZoom":20,"rank":2,"population":984000},{"id":"city:1159151053","kind":"city","name":"Whitehorse","latitude":60.716719,"longitude":-135.049984,"minZoom":4,"maxZoom":20,"rank":2,"population":23276},{"id":"city:1159151025","kind":"city","name":"Winnipeg","latitude":49.882988,"longitude":-97.165992,"minZoom":4,"maxZoom":20,"rank":2,"population":632063},{"id":"city:1159150745","kind":"city","name":"Yakutsk","latitude":62.034959,"longitude":129.735016,"minZoom":4,"maxZoom":20,"rank":2,"population":235600},{"id":"city:1159151047","kind":"city","name":"Yellowknife","latitude":62.442014,"longitude":-114.396981,"minZoom":4,"maxZoom":20,"rank":2,"population":19234},{"id":"country:1159320389","kind":"country","name":"Bélgica","latitude":50.785392,"longitude":4.800448,"minZoom":4,"maxZoom":9,"rank":2},{"id":"marine:1159115771","kind":"marine","name":"Canal de Mozambique","latitude":-19.096894,"longitude":40.979896,"minZoom":4,"maxZoom":8.5,"rank":2},{"id":"marine:1159116205","kind":"marine","name":"Estrecho de Davis","latitude":64.779587,"longitude":-58.012087,"minZoom":4,"maxZoom":8.5,"rank":2},{"id":"marine:1159115729","kind":"marine","name":"Estrecho de Luzón","latitude":22.068248,"longitude":120.868986,"minZoom":4,"maxZoom":8.5,"rank":2},{"id":"marine:1159116059","kind":"marine","name":"Golfo de Campeche","latitude":19.79014,"longitude":-93.558864,"minZoom":4,"maxZoom":8.5,"rank":2},{"id":"marine:1159115791","kind":"marine","name":"Golfo de Guinea","latitude":3.061701,"longitude":2.766479,"minZoom":4,"maxZoom":8.5,"rank":2},{"id":"marine:1159116123","kind":"marine","name":"Golfo de Tailandia","latitude":9.700788,"longitude":101.874447,"minZoom":4,"maxZoom":8.5,"rank":2},{"id":"marine:1159115749","kind":"marine","name":"Golfo de Vizcaya","latitude":45.550569,"longitude":-4.331897,"minZoom":4,"maxZoom":8.5,"rank":2},{"id":"marine:1159115999","kind":"marine","name":"mar Amarillo","latitude":35.773662,"longitude":123.368306,"minZoom":4,"maxZoom":8.5,"rank":2},{"id":"marine:1159115831","kind":"marine","name":"Mar Báltico","latitude":56.799974,"longitude":18.284065,"minZoom":4,"maxZoom":8.5,"rank":2},{"id":"marine:1159116181","kind":"marine","name":"mar de Amundsen","latitude":-74.031763,"longitude":-106.370356,"minZoom":4,"maxZoom":8.5,"rank":2},{"id":"marine:1159115987","kind":"marine","name":"mar de Andamán","latitude":11.004779,"longitude":95.441927,"minZoom":4,"maxZoom":8.5,"rank":2},{"id":"marine:1159116081","kind":"marine","name":"mar de Arafura","latitude":-8.81007,"longitude":136.141738,"minZoom":4,"maxZoom":8.5,"rank":2},{"id":"marine:1159115717","kind":"marine","name":"mar de Banda","latitude":-5.388418,"longitude":126.13052,"minZoom":4,"maxZoom":8.5,"rank":2},{"id":"marine:1159115861","kind":"marine","name":"Mar de Barents","latitude":75.354433,"longitude":43.017179,"minZoom":4,"maxZoom":8.5,"rank":2},{"id":"marine:1159116169","kind":"marine","name":"mar de Bellingshausen","latitude":-71.718721,"longitude":-81.854695,"minZoom":4,"maxZoom":8.5,"rank":2},{"id":"marine:1159117319","kind":"marine","name":"mar de Bering","latitude":58.107041,"longitude":-171.654191,"minZoom":4,"maxZoom":8.5,"rank":2},{"id":"marine:1159115635","kind":"marine","name":"mar de Célebes","latitude":3.725986,"longitude":121.926161,"minZoom":4,"maxZoom":8.5,"rank":2},{"id":"marine:1159116027","kind":"marine","name":"mar de China Oriental","latitude":28.722555,"longitude":125.282212,"minZoom":4,"maxZoom":8.5,"rank":2},{"id":"marine:1159116037","kind":"marine","name":"mar de Chukotka.","latitude":69.17893,"longitude":-170.215999,"minZoom":4,"maxZoom":8.5,"rank":2},{"id":"marine:1159115695","kind":"marine","name":"mar de Groenlandia","latitude":75.429357,"longitude":-8.133679,"minZoom":4,"maxZoom":8.5,"rank":2},{"id":"marine:1159115935","kind":"marine","name":"mar de Irlanda","latitude":53.382535,"longitude":-4.866154,"minZoom":4,"maxZoom":8.5,"rank":2},{"id":"marine:1159115959","kind":"marine","name":"mar de Java","latitude":-5.1443,"longitude":111.954269,"minZoom":4,"maxZoom":8.5,"rank":2},{"id":"marine:1159116231","kind":"marine","name":"mar de Kara","latitude":76.251687,"longitude":77.017646,"minZoom":4,"maxZoom":8.5,"rank":2},{"id":"marine:1159116253","kind":"marine","name":"mar de Láptev","latitude":76.220637,"longitude":120.588475,"minZoom":4,"maxZoom":8.5,"rank":2},{"id":"marine:1159116143","kind":"marine","name":"mar de Laquedivas","latitude":6.955062,"longitude":74.799084,"minZoom":4,"maxZoom":8.5,"rank":2},{"id":"marine:1159120667","kind":"marine","name":"mar de los Sargazos","latitude":27.890739,"longitude":-59.716183,"minZoom":4,"maxZoom":8.5,"rank":2},{"id":"marine:1159115675","kind":"marine","name":"mar de Noruega","latitude":68.576906,"longitude":4.746719,"minZoom":4,"maxZoom":8.5,"rank":2},{"id":"marine:1159115655","kind":"marine","name":"mar de Sulú","latitude":8.555569,"longitude":120.158335,"minZoom":4,"maxZoom":8.5,"rank":2},{"id":"marine:1159116101","kind":"marine","name":"mar de Timor","latitude":-10.986668,"longitude":128.046639,"minZoom":4,"maxZoom":8.5,"rank":2},{"id":"marine:1159115879","kind":"marine","name":"mar del Norte","latitude":56.391779,"longitude":2.758323,"minZoom":4,"maxZoom":8.5,"rank":2},{"id":"marine:1159115811","kind":"marine","name":"mar del Scotia","latitude":-61.155535,"longitude":-54.902634,"minZoom":4,"maxZoom":8.5,"rank":2},{"id":"marine:1159116269","kind":"marine","name":"Pasaje de Drake","latitude":-64.539648,"longitude":-63.992944,"minZoom":4,"maxZoom":8.5,"rank":2},{"id":"city:1159151349","kind":"city","name":"Alejandría","latitude":31.201965,"longitude":29.94805,"minZoom":4,"maxZoom":20,"rank":3,"population":4165000},{"id":"city:1159150929","kind":"city","name":"Antofagasta","latitude":-23.649992,"longitude":-70.400003,"minZoom":4,"maxZoom":20,"rank":3,"population":309832},{"id":"city:1159151261","kind":"city","name":"Barcelona","latitude":41.385245,"longitude":2.181425,"minZoom":4,"maxZoom":20,"rank":3,"population":4920000},{"id":"city:1159151169","kind":"city","name":"Brisbane","latitude":-27.453085,"longitude":153.033147,"minZoom":4,"maxZoom":20,"rank":3,"population":1860000},{"id":"city:1159151161","kind":"city","name":"Canberra","latitude":-35.283029,"longitude":149.129026,"minZoom":4,"maxZoom":20,"rank":3,"population":327700},{"id":"city:1159151105","kind":"city","name":"Córdoba","latitude":-31.398012,"longitude":-64.18424,"minZoom":4,"maxZoom":20,"rank":3,"population":1452000},{"id":"city:1159151289","kind":"city","name":"Durban","latitude":-29.863067,"longitude":30.978065,"minZoom":4,"maxZoom":20,"rank":3,"population":2729000},{"id":"city:1159151351","kind":"city","name":"Fráncfort","latitude":50.099977,"longitude":8.675015,"minZoom":4,"maxZoom":20,"rank":3,"population":2895000},{"id":"city:1159150933","kind":"city","name":"Valdivia","latitude":-39.795001,"longitude":-73.245023,"minZoom":4,"maxZoom":20,"rank":3,"population":159599},{"id":"country:1159320335","kind":"country","name":"Antártida","latitude":-79.843222,"longitude":35.885455,"minZoom":4,"maxZoom":9,"rank":4},{"id":"country:1159320415","kind":"country","name":"Bahamas","latitude":26.401789,"longitude":-77.146688,"minZoom":4,"maxZoom":9,"rank":4},{"id":"country:1159320413","kind":"country","name":"Baréin","latitude":26.055972,"longitude":50.554816,"minZoom":4,"maxZoom":9,"rank":4},{"id":"country:1159320461","kind":"country","name":"Botsuana","latitude":-22.102634,"longitude":24.179216,"minZoom":4,"maxZoom":9,"rank":4},{"id":"country:1159320409","kind":"country","name":"Bulgaria","latitude":42.508785,"longitude":25.15709,"minZoom":4,"maxZoom":9,"rank":4},{"id":"country:1159320523","kind":"country","name":"Cabo Verde","latitude":15.074761,"longitude":-23.639434,"minZoom":4,"maxZoom":9,"rank":4},{"id":"country:1159320329","kind":"country","name":"Emiratos Árabes Unidos","latitude":23.466285,"longitude":54.547256,"minZoom":4,"maxZoom":9,"rank":4},{"id":"country:1159320581","kind":"country","name":"Eritrea","latitude":15.787401,"longitude":38.285566,"minZoom":4,"maxZoom":9,"rank":4},{"id":"country:1159320801","kind":"country","name":"Guinea Ecuatorial","latitude":2.333,"longitude":8.9902,"minZoom":4,"maxZoom":9,"rank":4},{"id":"country:1159320817","kind":"country","name":"Guyana","latitude":5.124317,"longitude":-58.942643,"minZoom":4,"maxZoom":9,"rank":4},{"id":"country:1159320473","kind":"country","name":"Hong Kong","latitude":22.448829,"longitude":114.097769,"minZoom":4,"maxZoom":9,"rank":4},{"id":"country:1159321129","kind":"country","name":"Islas Cook","latitude":-21.215993,"longitude":-159.785675,"minZoom":4,"maxZoom":9,"rank":4},{"id":"country:1159320931","kind":"country","name":"Jamaica","latitude":18.137124,"longitude":-77.318767,"minZoom":4,"maxZoom":9,"rank":4},{"id":"country:1159320935","kind":"country","name":"Jordania","latitude":30.805025,"longitude":36.375991,"minZoom":4,"maxZoom":9,"rank":4},{"id":"country:1159321011","kind":"country","name":"Laos","latitude":19.431821,"longitude":102.533912,"minZoom":4,"maxZoom":9,"rank":4},{"id":"country:1159321015","kind":"country","name":"Liberia","latitude":6.447177,"longitude":-9.460379,"minZoom":4,"maxZoom":9,"rank":4},{"id":"country:1159320475","kind":"country","name":"Macao","latitude":22.129735,"longitude":113.556038,"minZoom":4,"maxZoom":9,"rank":4},{"id":"country:1159321133","kind":"country","name":"Niue","latitude":-19.045956,"longitude":-169.862565,"minZoom":4,"maxZoom":9,"rank":4},{"id":"country:1159321151","kind":"country","name":"Omán","latitude":22.120427,"longitude":57.336553,"minZoom":4,"maxZoom":9,"rank":4},{"id":"country:1159321161","kind":"country","name":"Panamá","latitude":8.72198,"longitude":-80.352106,"minZoom":4,"maxZoom":9,"rank":4},{"id":"country:1159320463","kind":"country","name":"República Centroafricana","latitude":6.989681,"longitude":20.906897,"minZoom":4,"maxZoom":9,"rank":4},{"id":"country:1159320515","kind":"country","name":"República del Congo","latitude":0.142331,"longitude":15.9005,"minZoom":4,"maxZoom":9,"rank":4},{"id":"country:1159321357","kind":"country","name":"Samoa Estadounidense","latitude":-14.32671,"longitude":-170.747153,"minZoom":4,"maxZoom":9,"rank":4},{"id":"country:1159321251","kind":"country","name":"Sierra Leona","latitude":8.617449,"longitude":-11.763677,"minZoom":4,"maxZoom":9,"rank":4},{"id":"country:1159321289","kind":"country","name":"Suazilandia","latitude":-26.533676,"longitude":31.467264,"minZoom":4,"maxZoom":9,"rank":4},{"id":"country:1159320491","kind":"country","name":"Suiza","latitude":46.719114,"longitude":7.463965,"minZoom":4,"maxZoom":9,"rank":4},{"id":"country:1159321281","kind":"country","name":"Surinam","latitude":4.143987,"longitude":-55.91094,"minZoom":4,"maxZoom":9,"rank":4},{"id":"country:1159321307","kind":"country","name":"Tayikistán","latitude":38.199835,"longitude":72.587276,"minZoom":4,"maxZoom":9,"rank":4},{"id":"country:1159321319","kind":"country","name":"Tonga","latitude":-21.210026,"longitude":-175.163014,"minZoom":4,"maxZoom":9,"rank":4},{"id":"country:1159321421","kind":"country","name":"Vanuatu","latitude":-15.37153,"longitude":166.908762,"minZoom":4,"maxZoom":9,"rank":4},{"id":"city:1159151255","kind":"city","name":"Ankara","latitude":39.929184,"longitude":32.862446,"minZoom":4,"maxZoom":20,"rank":5,"population":3716000},{"id":"city:1159151471","kind":"city","name":"Argel","latitude":36.765011,"longitude":3.048607,"minZoom":4,"maxZoom":20,"rank":5,"population":3354000},{"id":"city:1159151345","kind":"city","name":"Cali","latitude":3.401905,"longitude":-76.501912,"minZoom":4,"maxZoom":20,"rank":5,"population":2254000},{"id":"city:1159150721","kind":"city","name":"Ciudad Cebú","latitude":10.321922,"longitude":123.898129,"minZoom":4,"maxZoom":20,"rank":5,"population":815000},{"id":"city:1159151253","kind":"city","name":"Ciudad Ho Chi Minh","latitude":10.781971,"longitude":106.693081,"minZoom":4,"maxZoom":20,"rank":5,"population":5314000},{"id":"city:1159150611","kind":"city","name":"Cuzco","latitude":-13.525029,"longitude":-71.972155,"minZoom":4,"maxZoom":20,"rank":5,"population":361182},{"id":"city:1159151305","kind":"city","name":"Dar es-Salaam","latitude":-6.798067,"longitude":39.266396,"minZoom":4,"maxZoom":20,"rank":5,"population":2930000},{"id":"city:1159150591","kind":"city","name":"Glasgow","latitude":55.876351,"longitude":-4.252653,"minZoom":4,"maxZoom":20,"rank":5,"population":1160000},{"id":"city:1159151251","kind":"city","name":"Hanói","latitude":21.035273,"longitude":105.848068,"minZoom":4,"maxZoom":20,"rank":5,"population":4378000},{"id":"city:1159151275","kind":"city","name":"Jartum","latitude":15.590024,"longitude":32.532233,"minZoom":4,"maxZoom":20,"rank":5,"population":4754000},{"id":"city:1159151421","kind":"city","name":"Mashhad","latitude":36.271966,"longitude":59.568051,"minZoom":4,"maxZoom":20,"rank":5,"population":2469000},{"id":"city:1159151343","kind":"city","name":"Medellín","latitude":6.276949,"longitude":-75.576956,"minZoom":4,"maxZoom":20,"rank":5,"population":3297000},{"id":"city:1159151477","kind":"city","name":"Rangún","latitude":16.7853,"longitude":96.164732,"minZoom":4,"maxZoom":20,"rank":5,"population":4088000},{"id":"city:1159150561","kind":"city","name":"Sebastopol","latitude":44.599977,"longitude":33.464975,"minZoom":4,"maxZoom":20,"rank":5,"population":379200},{"id":"city:1159150615","kind":"city","name":"Trujillo","latitude":-8.120035,"longitude":-79.019968,"minZoom":4,"maxZoom":20,"rank":5,"population":765171},{"id":"city:1159151299","kind":"city","name":"Varsovia","latitude":52.251947,"longitude":20.998054,"minZoom":4,"maxZoom":20,"rank":5,"population":1707000},{"id":"city:1159151277","kind":"city","name":"Yeda","latitude":21.518835,"longitude":39.217252,"minZoom":4,"maxZoom":20,"rank":5,"population":3012000},{"id":"country:1159320381","kind":"country","name":"Azerbaiyán","latitude":40.402387,"longitude":47.210994,"minZoom":4,"maxZoom":9,"rank":5},{"id":"country:1159320399","kind":"country","name":"Benín","latitude":10.324775,"longitude":2.352018,"minZoom":4,"maxZoom":9,"rank":5},{"id":"country:1159320453","kind":"country","name":"Bután","latitude":27.536685,"longitude":90.040294,"minZoom":4,"maxZoom":9,"rank":5},{"id":"country:1159321197","kind":"country","name":"Catar","latitude":25.237383,"longitude":51.143509,"minZoom":4,"maxZoom":9,"rank":5},{"id":"country:1159320779","kind":"country","name":"Georgia","latitude":41.870087,"longitude":43.735724,"minZoom":4,"maxZoom":9,"rank":5},{"id":"country:1159320839","kind":"country","name":"Haití","latitude":19.263784,"longitude":-72.224051,"minZoom":4,"maxZoom":9,"rank":5},{"id":"country:1159320841","kind":"country","name":"Hungría","latitude":47.086841,"longitude":19.447867,"minZoom":4,"maxZoom":9,"rank":5},{"id":"country:1159321033","kind":"country","name":"Letonia","latitude":57.066872,"longitude":25.458723,"minZoom":4,"maxZoom":9,"rank":5},{"id":"country:1159321013","kind":"country","name":"Líbano","latitude":34.133368,"longitude":35.992892,"minZoom":4,"maxZoom":9,"rank":5},{"id":"country:1159321029","kind":"country","name":"Lituania","latitude":55.103703,"longitude":24.089932,"minZoom":4,"maxZoom":9,"rank":5},{"id":"country:1159321053","kind":"country","name":"Maldivas","latitude":4.174441,"longitude":73.507554,"minZoom":4,"maxZoom":9,"rank":5},{"id":"country:1159321065","kind":"country","name":"Malta","latitude":35.892886,"longitude":14.433005,"minZoom":4,"maxZoom":9,"rank":5},{"id":"country:1159321079","kind":"country","name":"Mauricio","latitude":-20.299506,"longitude":57.565848,"minZoom":4,"maxZoom":9,"rank":5},{"id":"country:1159321091","kind":"country","name":"Nicaragua","latitude":12.670697,"longitude":-85.069347,"minZoom":4,"maxZoom":9,"rank":5},{"id":"country:1159321101","kind":"country","name":"Países Bajos","latitude":52.422211,"longitude":5.61144,"minZoom":4,"maxZoom":10,"rank":5},{"id":"country:1159320535","kind":"country","name":"República Checa","latitude":49.882364,"longitude":15.377555,"minZoom":4,"maxZoom":9,"rank":5},{"id":"country:1159321267","kind":"country","name":"Serbia","latitude":44.189919,"longitude":20.787989,"minZoom":4,"maxZoom":7,"rank":5},{"id":"country:1159321313","kind":"country","name":"Timor Oriental","latitude":-8.803705,"longitude":125.854679,"minZoom":4,"maxZoom":9,"rank":5},{"id":"country:1159320541","kind":"country","name":"Yibuti","latitude":11.976343,"longitude":42.498825,"minZoom":4,"maxZoom":9,"rank":5},{"id":"city:1159151403","kind":"city","name":"Acra","latitude":5.551981,"longitude":-0.218662,"minZoom":4,"maxZoom":20,"rank":6,"population":2121000},{"id":"city:1159150945","kind":"city","name":"Bamako","latitude":12.651961,"longitude":-8.001985,"minZoom":4,"maxZoom":20,"rank":6,"population":1494000},{"id":"city:1159151263","kind":"city","name":"Bucarest","latitude":44.435318,"longitude":26.098001,"minZoom":4,"maxZoom":20,"rank":6,"population":1942000},{"id":"city:1159150573","kind":"city","name":"Harare","latitude":-17.815844,"longitude":31.042764,"minZoom":4,"maxZoom":20,"rank":6,"population":1572000},{"id":"city:1159151317","kind":"city","name":"Kuala Lumpur","latitude":3.168612,"longitude":101.698037,"minZoom":4,"maxZoom":20,"rank":6,"population":1448000},{"id":"city:1159151347","kind":"city","name":"La Habana","latitude":23.133905,"longitude":-82.366128,"minZoom":4,"maxZoom":20,"rank":6,"population":2174000},{"id":"city:1159151133","kind":"city","name":"La Paz","latitude":-16.496028,"longitude":-68.151931,"minZoom":4,"maxZoom":20,"rank":6,"population":1590000},{"id":"city:1159151273","kind":"city","name":"Lisboa","latitude":38.724669,"longitude":-9.146812,"minZoom":4,"maxZoom":20,"rank":6,"population":2812000},{"id":"city:1159151469","kind":"city","name":"Luanda","latitude":-8.83634,"longitude":13.232481,"minZoom":4,"maxZoom":20,"rank":6,"population":5172900},{"id":"city:1159150571","kind":"city","name":"Lusaka","latitude":-15.414698,"longitude":28.281382,"minZoom":4,"maxZoom":20,"rank":6,"population":1328000},{"id":"city:1159151237","kind":"city","name":"Maracaibo","latitude":10.731923,"longitude":-71.661924,"minZoom":4,"maxZoom":20,"rank":6,"population":2072000},{"id":"city:1159150965","kind":"city","name":"Nur-Sultán","latitude":51.181125,"longitude":71.427774,"minZoom":4,"maxZoom":20,"rank":6,"population":345604},{"id":"city:1159151259","kind":"city","name":"Saná","latitude":15.356679,"longitude":44.204648,"minZoom":4,"maxZoom":20,"rank":6,"population":2008000},{"id":"country:1159320705","kind":"country","name":"Bermudas","latitude":32.296592,"longitude":-64.763573,"minZoom":4,"maxZoom":9,"rank":6},{"id":"country:1159320451","kind":"country","name":"Brunéi","latitude":4.448298,"longitude":114.551943,"minZoom":4,"maxZoom":9,"rank":6},{"id":"country:1159320387","kind":"country","name":"Burundi","latitude":-3.332836,"longitude":29.917086,"minZoom":4,"maxZoom":9,"rank":6},{"id":"country:1159320521","kind":"country","name":"Comoras","latitude":-11.727683,"longitude":43.318094,"minZoom":4,"maxZoom":9,"rank":6},{"id":"country:1159320833","kind":"country","name":"Croacia","latitude":45.805799,"longitude":16.37241,"minZoom":4,"maxZoom":9,"rank":6},{"id":"country:1159320543","kind":"country","name":"Dominica","latitude":15.458829,"longitude":-61.344958,"minZoom":4,"maxZoom":9,"rank":6},{"id":"country:1159321283","kind":"country","name":"Eslovaquia","latitude":48.734044,"longitude":19.049868,"minZoom":4,"maxZoom":9,"rank":6},{"id":"country:1159320813","kind":"country","name":"Granada","latitude":12.113156,"longitude":-61.680461,"minZoom":4,"maxZoom":9,"rank":6},{"id":"country:1159320549","kind":"country","name":"Islas Feroe","latitude":62.185604,"longitude":-7.058429,"minZoom":4,"maxZoom":9,"rank":6},{"id":"country:1159321027","kind":"country","name":"Lesoto","latitude":-29.480158,"longitude":28.246639,"minZoom":4,"maxZoom":9,"rank":6},{"id":"country:1159321081","kind":"country","name":"Malaui","latitude":-13.386737,"longitude":33.608082,"minZoom":4,"maxZoom":9,"rank":6},{"id":"country:1159321247","kind":"country","name":"Singapur","latitude":1.366587,"longitude":103.816925,"minZoom":4,"maxZoom":9,"rank":6},{"id":"country:1159321261","kind":"country","name":"Somalia","latitude":3.568925,"longitude":45.19238,"minZoom":4,"maxZoom":9,"rank":6},{"id":"country:1159320631","kind":"country","name":"Tierras Australes y Antárticas Francesas","latitude":-49.303721,"longitude":69.122136,"minZoom":4,"maxZoom":9,"rank":6},{"id":"city:1159150621","kind":"city","name":"Asunción","latitude":-25.294457,"longitude":-57.643451,"minZoom":4,"maxZoom":20,"rank":7,"population":1870000},{"id":"city:1159151419","kind":"city","name":"Helsinki","latitude":60.177509,"longitude":24.932181,"minZoom":4,"maxZoom":20,"rank":7,"population":1115000},{"id":"city:1159151281","kind":"city","name":"Oslo","latitude":59.918636,"longitude":10.748033,"minZoom":4,"maxZoom":20,"rank":7,"population":835000},{"id":"city:1159150847","kind":"city","name":"Quito","latitude":-0.213042,"longitude":-78.501997,"minZoom":4,"maxZoom":20,"rank":7,"population":1701000},{"id":"city:1159151415","kind":"city","name":"Trípoli","latitude":32.8925,"longitude":13.180012,"minZoom":4,"maxZoom":20,"rank":7,"population":2189000},{"id":"city:1159150641","kind":"city","name":"Trondheim","latitude":63.416658,"longitude":10.416666,"minZoom":4,"maxZoom":20,"rank":7,"population":147139},{"id":"city:1159150781","kind":"city","name":"Ulán Bator","latitude":47.918619,"longitude":106.91467,"minZoom":4,"maxZoom":20,"rank":7,"population":885000},{"id":"city:1159151439","kind":"city","name":"Abiyán","latitude":5.321943,"longitude":-4.041994,"minZoom":4,"maxZoom":20,"rank":8,"population":3802000},{"id":"city:1159150911","kind":"city","name":"Cayena","latitude":4.932992,"longitude":-52.330021,"minZoom":4,"maxZoom":20,"rank":8,"population":61550},{"id":"city:1159151701","kind":"city","name":"Christchurch","latitude":-43.535022,"longitude":172.630023,"minZoom":4,"maxZoom":20,"rank":8,"population":363200},{"id":"city:1159151361","kind":"city","name":"Ciudad de Kuwait","latitude":29.371664,"longitude":47.976355,"minZoom":4,"maxZoom":20,"rank":8,"population":2063000},{"id":"city:1159151437","kind":"city","name":"Copenhague","latitude":55.68051,"longitude":12.56154,"minZoom":4,"maxZoom":20,"rank":8,"population":1085000},{"id":"city:1159151309","kind":"city","name":"Dublín","latitude":53.335007,"longitude":-6.250852,"minZoom":4,"maxZoom":20,"rank":8,"population":1059000},{"id":"city:1159150585","kind":"city","name":"Georgetown","latitude":6.801974,"longitude":-58.167029,"minZoom":4,"maxZoom":20,"rank":8,"population":264350},{"id":"city:1159150715","kind":"city","name":"Mogadiscio","latitude":2.068627,"longitude":45.364732,"minZoom":4,"maxZoom":20,"rank":8,"population":1100000},{"id":"city:1159151311","kind":"city","name":"Monrovia","latitude":6.314582,"longitude":-10.79966,"minZoom":4,"maxZoom":20,"rank":8,"population":1041000},{"id":"city:1159150469","kind":"city","name":"Montevideo","latitude":-34.856096,"longitude":-56.172998,"minZoom":4,"maxZoom":20,"rank":8,"population":1513000},{"id":"city:1159150939","kind":"city","name":"Nuuk","latitude":64.198282,"longitude":-51.732659,"minZoom":4,"maxZoom":20,"rank":8,"population":14798},{"id":"city:1159150579","kind":"city","name":"Port Vila","latitude":-17.73335,"longitude":168.316641,"minZoom":4,"maxZoom":20,"rank":8,"population":44040},{"id":"city:1159150663","kind":"city","name":"Puerto Moresby","latitude":-9.464708,"longitude":147.192504,"minZoom":4,"maxZoom":20,"rank":8,"population":283733},{"id":"city:1159150811","kind":"city","name":"Riga","latitude":56.950024,"longitude":24.099965,"minZoom":4,"maxZoom":20,"rank":8,"population":742572},{"id":"city:1159151401","kind":"city","name":"Santo Domingo","latitude":18.472019,"longitude":-69.902031,"minZoom":4,"maxZoom":20,"rank":8,"population":2154000},{"id":"city:1159151417","kind":"city","name":"Tel Aviv","latitude":32.081937,"longitude":34.768066,"minZoom":4,"maxZoom":20,"rank":8,"population":3112000},{"id":"city:1159151699","kind":"city","name":"Wellington","latitude":-41.299988,"longitude":174.783266,"minZoom":4,"maxZoom":20,"rank":8,"population":393400},{"id":"country:1159321335","kind":"country","name":"República de China","latitude":23.652408,"longitude":120.868204,"minZoom":4.5,"maxZoom":8,"rank":3},{"id":"country:1159320449","kind":"country","name":"Barbados","latitude":13.163709,"longitude":-59.568966,"minZoom":4.5,"maxZoom":9.5,"rank":5},{"id":"country:1159320417","kind":"country","name":"Bosnia y Herzegovina","latitude":44.091051,"longitude":18.06841,"minZoom":4.5,"maxZoom":6.8,"rank":5},{"id":"country:1159320533","kind":"country","name":"Chipre","latitude":34.913329,"longitude":33.084182,"minZoom":4.5,"maxZoom":9.5,"rank":5},{"id":"country:1159320827","kind":"country","name":"Honduras","latitude":14.794801,"longitude":-86.887604,"minZoom":4.5,"maxZoom":9.5,"rank":5},{"id":"country:1159320365","kind":"country","name":"Isla Norfolk","latitude":-29.033042,"longitude":167.954531,"minZoom":4.5,"maxZoom":9.5,"rank":5},{"id":"country:1159320353","kind":"country","name":"Islas Ashmore y Cartier","latitude":-12.432571,"longitude":123.586368,"minZoom":4.5,"maxZoom":9.5,"rank":5},{"id":"country:1159320359","kind":"country","name":"islas del mar del Coral","latitude":-21.029311,"longitude":154.390595,"minZoom":4.5,"maxZoom":9.5,"rank":5},{"id":"country:1159320361","kind":"country","name":"Islas Heard y McDonald","latitude":-53.103462,"longitude":73.50521,"minZoom":4.5,"maxZoom":9.5,"rank":5},{"id":"country:1159320711","kind":"country","name":"Islas Malvinas","latitude":-51.608913,"longitude":-58.738602,"minZoom":4.5,"maxZoom":9,"rank":5},{"id":"country:1159320899","kind":"country","name":"Palestina","latitude":32.047431,"longitude":35.291341,"minZoom":4.5,"maxZoom":9.5,"rank":5},{"id":"country:1159320563","kind":"country","name":"República Dominicana","latitude":19.104137,"longitude":-70.653998,"minZoom":4.5,"maxZoom":9.5,"rank":5},{"id":"country:1159321259","kind":"country","name":"Somalilandia","latitude":9.443889,"longitude":46.731595,"minZoom":4.5,"maxZoom":9,"rank":5},{"id":"country:1159321321","kind":"country","name":"Trinidad y Tobago","latitude":10.9989,"longitude":-60.9184,"minZoom":4.5,"maxZoom":9.5,"rank":5},{"id":"admin1:1159311629","kind":"admin1","name":"Andhra Pradesh","latitude":16.4854,"longitude":79.208,"minZoom":4.6,"maxZoom":20,"rank":2},{"id":"admin1:1159310971","kind":"admin1","name":"Anhui","latitude":31.9537,"longitude":117.253,"minZoom":4.6,"maxZoom":20,"rank":2},{"id":"admin1:1159315223","kind":"admin1","name":"Arunachal Pradesh","latitude":28.4056,"longitude":94.4673,"minZoom":4.6,"maxZoom":20,"rank":2},{"id":"admin1:1159311865","kind":"admin1","name":"Assam","latitude":26.3302,"longitude":92.9929,"minZoom":4.6,"maxZoom":20,"rank":2},{"id":"admin1:1159309865","kind":"admin1","name":"Bali","latitude":-8.3412,"longitude":115.179,"minZoom":4.6,"maxZoom":20,"rank":2},{"id":"admin1:1159309895","kind":"admin1","name":"Bangka-Belitung","latitude":-2.95817,"longitude":106.819,"minZoom":4.6,"maxZoom":20,"rank":2},{"id":"admin1:1159309877","kind":"admin1","name":"Bantén","latitude":-6.25794,"longitude":106.167,"minZoom":4.6,"maxZoom":20,"rank":2},{"id":"admin1:1159313981","kind":"admin1","name":"Bengala Occidental","latitude":23.0523,"longitude":87.7289,"minZoom":4.6,"maxZoom":20,"rank":2},{"id":"admin1:1159314167","kind":"admin1","name":"Bihar","latitude":25.6853,"longitude":85.8134,"minZoom":4.6,"maxZoom":20,"rank":2},{"id":"admin1:1159311333","kind":"admin1","name":"Borneo Central","latitude":-1.84217,"longitude":113.286,"minZoom":4.6,"maxZoom":20,"rank":2},{"id":"admin1:1159309697","kind":"admin1","name":"Borneo Meridional","latitude":-3.00713,"longitude":115.451,"minZoom":4.6,"maxZoom":20,"rank":2},{"id":"admin1:1159309929","kind":"admin1","name":"Borneo Occidental","latitude":-0.063647,"longitude":111.304,"minZoom":4.6,"maxZoom":20,"rank":2},{"id":"admin1:1159308861","kind":"admin1","name":"Célebes Central","latitude":-1.30097,"longitude":120.153,"minZoom":4.6,"maxZoom":20,"rank":2},{"id":"admin1:1159309875","kind":"admin1","name":"Célebes Meridional","latitude":-3.7444,"longitude":119.99,"minZoom":4.6,"maxZoom":20,"rank":2},{"id":"admin1:1159310005","kind":"admin1","name":"Célebes Occidental","latitude":-2.69615,"longitude":119.316,"minZoom":4.6,"maxZoom":20,"rank":2},{"id":"admin1:1159307977","kind":"admin1","name":"Célebes Septentrional","latitude":0.853039,"longitude":124.446,"minZoom":4.6,"maxZoom":20,"rank":2},{"id":"admin1:1159308779","kind":"admin1","name":"Célebes Suroriental","latitude":-4.0746,"longitude":122.119,"minZoom":4.6,"maxZoom":20,"rank":2},{"id":"admin1:1159314171","kind":"admin1","name":"Chhattisgarh","latitude":21.8044,"longitude":82.3069,"minZoom":4.6,"maxZoom":20,"rank":2},{"id":"admin1:1159310931","kind":"admin1","name":"Chongqing","latitude":30.0173,"longitude":107.73,"minZoom":4.6,"maxZoom":20,"rank":2},{"id":"admin1:1159309739","kind":"admin1","name":"Estado Libre","latitude":-28.5815,"longitude":26.4914,"minZoom":4.6,"maxZoom":20,"rank":2},{"id":"admin1:1159315795","kind":"admin1","name":"Fujian","latitude":26.408,"longitude":118.178,"minZoom":4.6,"maxZoom":20,"rank":2},{"id":"admin1:1159310923","kind":"admin1","name":"Gansu","latitude":38.7393,"longitude":100.735,"minZoom":4.6,"maxZoom":20,"rank":2},{"id":"admin1:1159309741","kind":"admin1","name":"Gauteng","latitude":-26.1682,"longitude":28.2074,"minZoom":4.6,"maxZoom":20,"rank":2},{"id":"admin1:1159314181","kind":"admin1","name":"Goa","latitude":15.3133,"longitude":73.9951,"minZoom":4.6,"maxZoom":20,"rank":2},{"id":"admin1:1159310335","kind":"admin1","name":"Guangdong","latitude":23.7924,"longitude":113.72,"minZoom":4.6,"maxZoom":20,"rank":2},{"id":"admin1:1159310341","kind":"admin1","name":"Guangxi","latitude":23.7451,"longitude":108.756,"minZoom":4.6,"maxZoom":20,"rank":2},{"id":"admin1:1159310929","kind":"admin1","name":"Guizhou","latitude":26.8033,"longitude":106.559,"minZoom":4.6,"maxZoom":20,"rank":2},{"id":"admin1:1159314179","kind":"admin1","name":"Guyarat","latitude":22.7501,"longitude":71.3013,"minZoom":4.6,"maxZoom":20,"rank":2},{"id":"admin1:1159311749","kind":"admin1","name":"Hainan","latitude":19.1865,"longitude":109.825,"minZoom":4.6,"maxZoom":20,"rank":2},{"id":"admin1:1159311881","kind":"admin1","name":"Haryana","latitude":29.1003,"longitude":76.271,"minZoom":4.6,"maxZoom":20,"rank":2},{"id":"admin1:1159312747","kind":"admin1","name":"Hebei","latitude":38.5205,"longitude":115.314,"minZoom":4.6,"maxZoom":20,"rank":2},{"id":"admin1:1159312759","kind":"admin1","name":"Heilongjiang","latitude":46.8451,"longitude":127.97,"minZoom":4.6,"maxZoom":20,"rank":2},{"id":"admin1:1159312749","kind":"admin1","name":"Henan","latitude":33.9055,"longitude":113.484,"minZoom":4.6,"maxZoom":20,"rank":2},{"id":"admin1:1159311877","kind":"admin1","name":"Himachal Pradesh","latitude":31.6755,"longitude":77.2875,"minZoom":4.6,"maxZoom":20,"rank":2},{"id":"admin1:1159312741","kind":"admin1","name":"Hubei","latitude":30.9857,"longitude":112.264,"minZoom":4.6,"maxZoom":20,"rank":2},{"id":"admin1:1159312745","kind":"admin1","name":"Hunan","latitude":27.6667,"longitude":111.712,"minZoom":4.6,"maxZoom":20,"rank":2},{"id":"admin1:1159311381","kind":"admin1","name":"Islas Andamán y Nicobar","latitude":6.83654,"longitude":93.7895,"minZoom":4.6,"maxZoom":20,"rank":2},{"id":"admin1:1159311289","kind":"admin1","name":"Islas Riau","latitude":-0.142639,"longitude":104.601,"minZoom":4.6,"maxZoom":20,"rank":2},{"id":"admin1:1159311911","kind":"admin1","name":"Jammu y Cachemira","latitude":33.9658,"longitude":76.6395,"minZoom":4.6,"maxZoom":20,"rank":2},{"id":"admin1:1159309873","kind":"admin1","name":"Java Central","latitude":-7.2901,"longitude":109.896,"minZoom":4.6,"maxZoom":20,"rank":2},{"id":"admin1:1159309879","kind":"admin1","name":"Java Occidental","latitude":-6.90763,"longitude":107.638,"minZoom":4.6,"maxZoom":20,"rank":2},{"id":"admin1:1159309869","kind":"admin1","name":"Java Oriental","latitude":-7.88129,"longitude":112.616,"minZoom":4.6,"maxZoom":20,"rank":2},{"id":"admin1:1159314163","kind":"admin1","name":"Jharkhand","latitude":23.5221,"longitude":85.0584,"minZoom":4.6,"maxZoom":20,"rank":2},{"id":"admin1:1159311859","kind":"admin1","name":"Jiangsu","latitude":32.9844,"longitude":119.942,"minZoom":4.6,"maxZoom":20,"rank":2},{"id":"admin1:1159312753","kind":"admin1","name":"Jiangxi","latitude":27.6397,"longitude":116.017,"minZoom":4.6,"maxZoom":20,"rank":2},{"id":"admin1:1159312755","kind":"admin1","name":"Jilin","latitude":43.2978,"longitude":126.466,"minZoom":4.6,"maxZoom":20,"rank":2},{"id":"admin1:1159310009","kind":"admin1","name":"Kalimantan Oriental","latitude":1.28915,"longitude":116.354,"minZoom":4.6,"maxZoom":20,"rank":2},{"id":"admin1:1159311889","kind":"admin1","name":"Karnataka","latitude":14.3681,"longitude":75.667,"minZoom":4.6,"maxZoom":20,"rank":2},{"id":"admin1:1159311883","kind":"admin1","name":"Kerala","latitude":10.3666,"longitude":76.5237,"minZoom":4.6,"maxZoom":20,"rank":2},{"id":"admin1:1159309747","kind":"admin1","name":"KwaZulu-Natal","latitude":-28.7468,"longitude":30.8231,"minZoom":4.6,"maxZoom":20,"rank":2},{"id":"admin1:1730014023","kind":"admin1","name":"Ladakh","latitude":34.025587,"longitude":77.480614,"minZoom":4.6,"maxZoom":20,"rank":2},{"id":"admin1:1159309885","kind":"admin1","name":"Lampung","latitude":-4.919,"longitude":105.059,"minZoom":4.6,"maxZoom":20,"rank":2},